~Version
 VERS              .         3.0                           : CWLS LOG ASCII STANDARD - VERSION 3.0
 WRAP              .         NO                            : ONE LINE PER DEPTH STEP
 DLM               .         SPACE                         : DELIMITING CHARACTER(SPACE TAB OR COMMA)
~Well Information
#_______________________________________________________________________________
#
#PARAMETER_NAME    .UNIT     VALUE                         : DESCRIPTION
#_______________________________________________________________________________
STRT               .M        200                           : First reference value
STOP               .M        2131.9748                     : Last reference value
STEP               .M        0.1524                        : Step increment
NULL               .         -9999                         : Missing value
COMP               .         PEMEX                         : Company
WELL               .         YETIC-1                       : Well name
FLD                .         YETIC                         : Field
LOC                .         PLAT. PRIDE WISCONSIN         : Location
SRVC               .         TEMPLE                        : Service Company
CTRY               .         MX                            : Country
DATE               .         01-Julio-2005                 : Service Date
X                  .M        364558.478                    : X or East-West coordinate
Y                  .M        2032524.533                   : Y or North South coordinate
GDAT               .                                       : Geodetic Datum
HZCS               .                                       : Horizontal Co-ordinate System
ACTIVO             .         ACTIVO REGIONAL EXPLORACION MARINA: 
APD                .                                       : Above Perm Datum
API                .                                       : API Number
CLASS              .         01-01-01                      : 
CNTY               .         COATZACOALCOS                 : County
CRSTATUS           .         1                             : 
CURRENT_CL         .         1                             : 
COUNTRY            .         Mexico                        : Mexico
DEVIATION_         .                                       : 
DISTRICT           .         278                           : 
DMF                .                                       : Drill Measured From
EDF                .         30.000000                     : Elev-Drill Floor
EGL                .         -42.000000                    : Elev-Ground Level
EKB                .         30.300000                     : Elev-Kelly Bushing.
EPD                .                                       : Elevation
EREF               .         33                            : 
FIELD              .         90016                         : 
FORM_AT_TD         .         PLI                           : 
Fecha_de_Inicio    .         01/01/2001                    : 01/01/2008
GEOLOGICAL         .                                       : 
GEOLOGIC_P         .         CUENCA SALINA DEL ISTMO       : 
INSERTED_B         .                                       : 
LAST_UPDAT         .         05-07-10                      : 
LMF                .                                       : Log Measured From
LOC1               .                                       : Location 1
NODE_ID            .         2595768                       : 
OBJECTID           .         15377                         : 
OPERATOR           .         PEP                           : 
ORIGINALWELLNAME   .         Yetic-1                       : 
PDAT               .                                       : Perm Datum
PERIODO            .         TERCIARIO                     : 
PRIMARY_SO         .         PEP                           : 
PROY_INV           .         COATZACOALCOS                 : 
Provincia          .          SALINA DEL ISTMO             :  PILAR REFORMA-AKAL
Proyecto           .         UCHUKIL                       : CAMPECHE ORIENTE
RNGE               .                                       : Range
RT_ELEVATI         .         33                            : 
SECT               .                                       : Section
SHORT_NAME         .         Yetic-1                       : 
SITUACION          .         PRODUCTOR DE GAS Y CONDENSADO : 
SITUATION          .         TAP                           : 
STAT               .         VERACRUZ                      : State
WSTA               .         PRODUCTOR DE ACEITE Y GAS     : TAPONADO POR ACCIDENTE MECANICO DURANTE LA PERFORACION
TIPO_DE_HCS        .                                       :  
TOWN               .                                       : Township
TVD                .         2122                          : 
TD                 .M        0                             : 0
UPDATED_BY         .         LESPEJEL                      : 
UWI                .         3060000972                    : 0
WATER_REF          .         SL                            : 
WELL_NUMBE         .         1                             : 
WELL_TYPE          .         MARINO                        : 
Water_depth        .         42                            : 40
XCOORD             .         364558.3961                   : MapXCoordinate
YCOORD             .         2032524.8110                  : MapYCoordinate
group              .         02 Octli Cahua.Block 3 A      : 
~Parameter Information Block
#_______________________________________________________________________________
#
#PARAMETER_NAME    .UNIT     VALUE                         : DESCRIPTION
#_______________________________________________________________________________
SET                .         LQC                           : 
TLFamily_BS        .         Bit Size                      : 
TLFamily_CALI      .         Caliper                       : 
TLFamily_CGR       .         Gamma Ray Minus Uranium       : 
TLFamily_DT        .         Compressional Slowness        : 
TLFamily_DTS       .         Shear Slowness                : 
TLFamily_GR        .         Gamma Ray                     : 
TLFamily_GR_EDITED .         Gamma Ray                     : 
TLFamily_MD        .         Measured Depth                : 
TLFamily_NPHI      .         Neutron Porosity              : 
TLFamily_NPHI_EDITED .         Neutron Porosity              : 
TLFamily_POTA      .         Potassium Concentration       : 
TLFamily_RHOB      .         Bulk Density                  : 
TLFamily_RP        .         Resistivity - Deep            : 
TLFamily_RS        .         Resistivity - Shallow         : 
TLFamily_THOR      .         Thorium Concentration         : 
TLFamily_URAN      .         Uranium Concentration         : 
group              .         Registros Editados            : 
~Curve Information
#_______________________________________________________________________________
#
#LOGNAME           .UNIT     LOG_ID                        : DESCRIPTION
#_______________________________________________________________________________
DEPTH              .M                                      :  {F}
BS                 .in                                     :  {F}
CALI               .in                                     :  {F}
CGR                .gAPI                                   :  {F}
DT                 .us/ft                                  :  {F}
DTS                .us/ft                                  :  {F}
GR                 .gAPI                                   :  {F}
GR_EDITED          .gAPI                                   : Normalized by Techlog {F}
NPHI               .V/V                                    :  {F}
NPHI_EDITED        .m3/m3                                  : Normalized by Techlog {F}
POTA               .%                                      :  {F}
RHOB               .g/cc                                   :  {F}
RP                 .OHMM                                   :  {F}
RS                 .OHMM                                   :  {F}
THOR               .ppm                                    :  {F}
URAN               .ppm                                    :  {F}
~Ascii
# ...
843.4328   8.5        9.1784     52.8673    151.1103   432.9915   79.605     68.15014   0.5237     0.5538562  2.0511     2.0312     0.9639     0.9402     6.9448     1.7303    
843.5852   8.5        9.2454     52.3338    151.113    416.1511   79.4628    68.04332   0.5299     0.561419   1.9775     2.041      0.9736     0.9503     7.1497     1.7754    
843.7376   8.5        9.2876     51.829     150.7119   398.7679   78.6106    67.4032    0.5294     0.5608090999999999 1.8857     2.0403     0.9889     0.9649     7.3625     1.8332    
843.89     8.5        9.2808     52.3572    149.9262   382.3838   78.0868    67.00974   0.5269     0.5577596  1.8049     2.028      0.9929     0.9679     7.5424     1.8727    
844.0424   8.5        9.2882     53.8032    149.1856   368.1223   78.3583    67.21368   0.5284     0.5595893  1.7994     2.0167     0.9852     0.9544     7.7088     1.7946    
844.1948   8.5        9.3288     56.0269    148.4173   357.0834   78.8839    67.60849   0.531      0.5627607999999999 1.8372     2.0171     0.9827     0.9437     7.968      1.6349    
844.3472   8.5        9.3505     57.9942    147.1793   350.3642   79.4359    68.02312   0.5288     0.5600772000000001 1.89       2.0277     0.9955     0.9557     8.3955     1.4533    
844.4996   8.5        9.3403     57.8742    146.0055   348.8482   80.3949    68.74347   0.5223     0.5521485  1.9312     2.0414     1.0125     0.9792     8.7993     1.3699    
844.652    8.5        9.3338     56.4317    145.847    351.863    81.7721    69.77797   0.5177     0.5465374  1.9374     2.0498     1.0156     0.9865     8.7661     1.5021    
844.8044   8.5        9.3472     54.9108    146.5207   357.4087   83.3897    70.99303   0.5193     0.548489   1.9308     2.0481     0.9988     0.9702     8.3521     1.7258    
844.9568   8.5        9.3945     54.0946    147.1399   363.1595   84.9606    72.17302   0.5237     0.5538562  1.9277     2.0342     0.97       0.9405     7.9155     1.9156    
845.1092   8.5        9.4811     53.9459    147.4061   365.0837   86.057     72.99658   0.5261     0.5567837  1.9356     2.0118     0.9406     0.9083     7.6547     2.0014    
845.2616   8.5        9.5223     54.071     147.485    368.8852   86.465     73.30305   0.5267     0.5575156  1.9375     1.9912     0.9176     0.8833     7.6011     1.9977    
845.414    8.5        9.4846     54.221     147.5182   368.0581   86.0159    72.96571   0.5261     0.5567837  1.9135     1.9867     0.9128     0.8737     7.7411     1.9617    
845.5664   8.5        9.4392     53.8137    147.6555   365.6233   85.1643    72.32603   0.5205     0.5499528  1.8761     2.0067     0.9434     0.8939     7.9474     1.9119    
845.7188   8.5        9.389      52.3352    147.9005   363.3541   83.4701    71.05342   0.51       0.5371448  1.8411     2.0395     1.0066     0.9459     7.9776     1.8904    
845.8712   8.5        9.3538     50.5177    148.0896   363.3227   81.2626    69.39525   0.5042     0.5300699  1.8048     2.0637     1.0711     1.0081     7.6964     1.9001    
846.0236   8.5        9.3396     49.7934    148.1779   366.8716   79.3033    67.92352   0.5062     0.5325096  1.7873     2.073      1.1097     1.0499     7.2397     1.9078    
846.176    8.5        9.3261     49.8304    148.2792   373.3468   78.5795    67.37983   0.5091     0.5360470000000001 1.8104     2.0731     1.1206     1.0608     6.9328     1.8564    
846.3284   8.5        9.2958     50.0508    148.4315   380.8786   79.2315    67.86958   0.5127     0.5404384  1.8295     2.0708     1.1165     1.0561     6.8666     1.7937    
846.4808   8.5        9.213      50.6104    148.2711   388.2322   80.1498    68.55937   0.5152     0.5434878  1.8328     2.0693     1.1125     1.0492     6.9255     1.7791    
846.6332   8.5        9.1035     51.6895    147.1498   392.8371   81.5652    69.62255   0.5071     0.5336074  1.8477     2.073      1.117      1.0502     7.0222     1.799     
846.7856   8.5        9.0544     53.6181    145.0802   382.7414   82.6836    70.46264   0.4909     0.5138465  1.8919     2.0847     1.1273     1.0601     7.151      1.7969    
846.938    8.5        9.0591     56.3102    143.0143   377.827    83.3746    70.98169   0.4758     0.4954274  1.962      2.102      1.1368     1.0698     7.4161     1.6963    
847.0904   8.5        9.0794     58.9073    141.6111   381.8955   82.6164    70.41216   0.468      0.4859129  2.057      2.1207     1.1452     1.0805     7.8103     1.4877    
847.2428   8.5        9.0673     60.3689    140.6604   392.7954   80.9067    69.12791   0.4686     0.4866448  2.1349     2.1364     1.1566     1.0956     8.2458     1.2486    
847.3952   8.5        8.9973     60.7049    139.9803   401.567    79.564     68.11935   0.4694     0.4876207  2.1716     2.1442     1.1698     1.1076     8.5161     1.0975    
847.5476   8.5        8.9416     61.1632    139.7232   397.332    79.7595    68.26619   0.4664     0.4839612  2.1781     2.1434     1.1776     1.1132     8.5825     1.0435    
847.7      8.5        8.9289     62.5375    139.7823   388.4838   81.0096    69.20521   0.4622     0.478838   2.1924     2.1387     1.1801     1.118      8.6477     0.9727    
847.8524   8.5        8.9261     63.7951    139.7757   382.1335   82.1546    70.06528   0.4577     0.4733489  2.2329     2.1338     1.1841     1.1225     8.8799     0.8037    
848.0048   8.5        8.9174     64.0686    139.5717   379.3822   82.5611    70.37062   0.455      0.4700554  2.2786     2.1281     1.1895     1.1259     9.0637     0.6493    
848.1572   8.5        8.8981     63.2115    139.386    378.965    83.0546    70.74132   0.4578     0.4734709  2.2979     2.1196     1.1929     1.13       9.0717     0.62      
848.3096   8.5        8.875      62.0451    139.4214   378.6295   83.8799    71.36124   0.4629     0.4796919  2.2763     2.1097     1.1937     1.1287     8.9048     0.7348    
848.462    8.5        8.8575     61.0414    139.6355   377.1697   85.0999    72.27765   0.4642     0.4812776  2.2457     2.1025     1.1912     1.1201     8.6915     0.8804    
848.6144   8.5        8.8437     60.2134    139.8137   375.3031   86.3609    73.22485   0.4595     0.4755446  2.2326     2.1019     1.1852     1.1151     8.4584     0.9838    
848.7668   8.5        8.8327     59.8111    139.8218   375.4123   87.1774    73.83817   0.4539     0.4687136  2.2353     2.1084     1.1813     1.1198     8.2073     1.0499    
848.9192   8.5        8.8257     60.1878    139.8199   379.8658   87.5642    74.12872   0.452      0.466396   2.2461     2.1187     1.1872     1.1334     8.0462     1.0691    
849.0716   8.5        8.8191     60.88      140.1466   388.3986   87.6244    74.17393   0.4515     0.4657861  2.2634     2.1283     1.2005     1.1516     8.088      1.0154    
849.224    8.5        8.8128     61.4746    140.9728   398.3423   87.4075    74.01102   0.4496     0.4634685  2.2814     2.1343     1.2092     1.1602     8.2182     0.9355    
849.3764   8.5        8.8118     61.7398    142.1531   406.3723   86.5803    73.38966   0.4486     0.4622487  2.3144     2.1365     1.2065     1.1551     8.258      0.8808    
849.5288   8.5        8.8179     62.0759    143.3901   410.6547   86.2086    73.11046   0.4503     0.4643224  2.335      2.135      1.1947     1.1449     8.2539     0.8907    
849.6812   8.5        8.8284     62.139     144.4695   411.8091   86.7132    73.48949   0.4527     0.4672499  2.3414     2.13       1.1784     1.1315     8.3242     0.9127    
849.8336   8.5        8.844      61.8368    145.3046   413.3282   87.8545    74.34678   0.4582     0.4739588  2.3512     2.1207     1.1614     1.114      8.3018     0.949     
849.986    8.5        8.8707     61.4623    145.8025   420.0489   87.958     74.42452   0.4674     0.4851811  2.3634     2.1076     1.146      1.0933     8.1595     1.0081    
850.1384   8.5        8.9051     61.1227    145.9289   433.9195   86.6122    73.41362   0.4752     0.4946955  2.3526     2.0943     1.1331     1.0788     8.0985     1.0777    
850.2908   8.5        8.9319     59.3641    145.8964   452.5186   85.3987    72.50209   0.4774     0.4973791  2.3201     2.0875     1.1238     1.0758     8.1423     1.1973    
