~Version
 VERS              .         3.0                           : CWLS LOG ASCII STANDARD - VERSION 3.0
 WRAP              .         NO                            : ONE LINE PER DEPTH STEP
 DLM               .         SPACE                         : DELIMITING CHARACTER(SPACE TAB OR COMMA)
~Well Information
#_______________________________________________________________________________
#
#PARAMETER_NAME    .UNIT     VALUE                         : DESCRIPTION
#_______________________________________________________________________________
STRT               .M        200                           : First reference value
STOP               .M        2131.9748                     : Last reference value
STEP               .M        0.1524                        : Step increment
NULL               .         -9999                         : Missing value
COMP               .         PEMEX                         : Company
WELL               .         YETIC-1                       : Well name
FLD                .         YETIC                         : Field
LOC                .         PLAT. PRIDE WISCONSIN         : Location
SRVC               .         TEMPLE                        : Service Company
CTRY               .         MX                            : Country
DATE               .         01-Julio-2005                 : Service Date
X                  .M        364558.478                    : X or East-West coordinate
Y                  .M        2032524.533                   : Y or North South coordinate
GDAT               .                                       : Geodetic Datum
HZCS               .                                       : Horizontal Co-ordinate System
ACTIVO             .         ACTIVO REGIONAL EXPLORACION MARINA: 
APD                .                                       : Above Perm Datum
API                .                                       : API Number
CLASS              .         01-01-01                      : 
CNTY               .         COATZACOALCOS                 : County
CRSTATUS           .         1                             : 
CURRENT_CL         .         1                             : 
COUNTRY            .         Mexico                        : Mexico
DEVIATION_         .                                       : 
DISTRICT           .         278                           : 
DMF                .                                       : Drill Measured From
EDF                .         30.000000                     : Elev-Drill Floor
EGL                .         -42.000000                    : Elev-Ground Level
EKB                .         30.300000                     : Elev-Kelly Bushing.
EPD                .                                       : Elevation
EREF               .         33                            : 
FIELD              .         90016                         : 
FORM_AT_TD         .         PLI                           : 
Fecha_de_Inicio    .         01/01/2001                    : 01/01/2008
GEOLOGICAL         .                                       : 
GEOLOGIC_P         .         CUENCA SALINA DEL ISTMO       : 
INSERTED_B         .                                       : 
LAST_UPDAT         .         05-07-10                      : 
LMF                .                                       : Log Measured From
LOC1               .                                       : Location 1
NODE_ID            .         2595768                       : 
OBJECTID           .         15377                         : 
OPERATOR           .         PEP                           : 
ORIGINALWELLNAME   .         Yetic-1                       : 
PDAT               .                                       : Perm Datum
PERIODO            .         TERCIARIO                     : 
PRIMARY_SO         .         PEP                           : 
PROY_INV           .         COATZACOALCOS                 : 
Provincia          .          SALINA DEL ISTMO             :  PILAR REFORMA-AKAL
Proyecto           .         UCHUKIL                       : CAMPECHE ORIENTE
RNGE               .                                       : Range
RT_ELEVATI         .         33                            : 
SECT               .                                       : Section
SHORT_NAME         .         Yetic-1                       : 
SITUACION          .         PRODUCTOR DE GAS Y CONDENSADO : 
SITUATION          .         TAP                           : 
STAT               .         VERACRUZ                      : State
WSTA               .         PRODUCTOR DE ACEITE Y GAS     : TAPONADO POR ACCIDENTE MECANICO DURANTE LA PERFORACION
TIPO_DE_HCS        .                                       :  
TOWN               .                                       : Township
TVD                .         2122                          : 
TD                 .M        0                             : 0
UPDATED_BY         .         LESPEJEL                      : 
UWI                .         3060000972                    : 0
WATER_REF          .         SL                            : 
WELL_NUMBE         .         1                             : 
WELL_TYPE          .         MARINO                        : 
Water_depth        .         42                            : 40
XCOORD             .         364558.3961                   : MapXCoordinate
YCOORD             .         2032524.8110                  : MapYCoordinate
group              .         02 Octli Cahua.Block 3 A      : 
~Parameter Information Block
#_______________________________________________________________________________
#
#PARAMETER_NAME    .UNIT     VALUE                         : DESCRIPTION
#_______________________________________________________________________________
SET                .         LQC                           : 
TLFamily_BS        .         Bit Size                      : 
TLFamily_CALI      .         Caliper                       : 
TLFamily_CGR       .         Gamma Ray Minus Uranium       : 
TLFamily_DT        .         Compressional Slowness        : 
TLFamily_DTS       .         Shear Slowness                : 
TLFamily_GR        .         Gamma Ray                     : 
TLFamily_GR_EDITED .         Gamma Ray                     : 
TLFamily_MD        .         Measured Depth                : 
TLFamily_NPHI      .         Neutron Porosity              : 
TLFamily_NPHI_EDITED .         Neutron Porosity              : 
TLFamily_POTA      .         Potassium Concentration       : 
TLFamily_RHOB      .         Bulk Density                  : 
TLFamily_RP        .         Resistivity - Deep            : 
TLFamily_RS        .         Resistivity - Shallow         : 
TLFamily_THOR      .         Thorium Concentration         : 
TLFamily_URAN      .         Uranium Concentration         : 
group              .         Registros Editados            : 
~Curve Information
#_______________________________________________________________________________
#
#LOGNAME           .UNIT     LOG_ID                        : DESCRIPTION
#_______________________________________________________________________________
DEPTH              .M                                      :  {F}
BS                 .in                                     :  {F}
CALI               .in                                     :  {F}
CGR                .gAPI                                   :  {F}
DT                 .us/ft                                  :  {F}
DTS                .us/ft                                  :  {F}
GR                 .gAPI                                   :  {F}
GR_EDITED          .gAPI                                   : Normalized by Techlog {F}
NPHI               .V/V                                    :  {F}
NPHI_EDITED        .m3/m3                                  : Normalized by Techlog {F}
POTA               .%                                      :  {F}
RHOB               .g/cc                                   :  {F}
RP                 .OHMM                                   :  {F}
RS                 .OHMM                                   :  {F}
THOR               .ppm                                    :  {F}
URAN               .ppm                                    :  {F}
~Ascii
# ...
333.1976   12.25      15.6839    -9999      159.4563   551.6188   43.7891    41.24691   0.4903     -9999      -9999      2.0538     3.1697     3.0164     -9999      -9999     
333.35     12.25      15.8384    -9999      159.7446   537.5984   44.7927    42.00076   0.4974     -9999      -9999      2.0496     3.2181     3.0939     -9999      -9999     
333.5024   12.25      15.9093    -9999      159.8773   527.0021   47.1482    43.77011   0.5016     -9999      -9999      2.0433     3.2115     3.1104     -9999      -9999     
333.6548   12.25      15.9188    -9999      160.0194   517.8697   48.6726    44.91516   0.5092     -9999      -9999      2.036      3.1817     3.0503     -9999      -9999     
333.8072   12.25      16.0451    -9999      160.4983   507.8285   48.5965    44.858     0.5179     -9999      -9999      2.031      3.1589     2.9817     -9999      -9999     
333.9596   12.25      16.0935    -9999      161.1194   497.1924   47.8189    44.2739    0.5187     -9999      -9999      2.0311     3.1571     2.966      -9999      -9999     
334.112    12.25      15.9169    -9999      161.3548   487.8684   46.926     43.6032    0.5103     -9999      -9999      2.0345     3.175      2.9979     -9999      -9999     
334.2644   12.25      15.7924    -9999      161.0712   481.8247   45.8537    42.79774   0.5006     -9999      -9999      2.0377     3.2016     3.059      -9999      -9999     
334.4168   12.25      15.8179    -9999      160.8621   480.4892   45.1098    42.23895   0.494      -9999      -9999      2.0376     3.2146     3.1116     -9999      -9999     
334.5692   12.25      15.7326    -9999      161.3615   482.4958   45.2424    42.33856   0.4919     -9999      -9999      2.0319     3.1992     3.1071     -9999      -9999     
334.7216   12.25      15.5487    -9999      162.4121   484.1262   45.803     42.75965   0.4962     -9999      -9999      2.0224     3.164      3.0471     -9999      -9999     
334.874    12.25      15.4251    -9999      163.3096   484.8754   46.5002    43.28336   0.5045     -9999      -9999      2.0162     3.1258     2.9717     -9999      -9999     
335.0264   12.25      15.3266    -9999      163.4492   490.3619   47.7645    44.23304   0.5088     -9999      -9999      2.0196     3.106      2.9289     -9999      -9999     
335.1788   12.25      15.2053    -9999      162.6609   504.368    49.433     45.48634   0.5008     -9999      -9999      2.0321     3.1295     2.9518     -9999      -9999     
335.3312   12.25      15.1263    -9999      161.2683   522.5531   50.4571    46.2556    0.4874     -9999      -9999      2.0471     3.1902     3.0323     -9999      -9999     
335.4836   12.25      15.1051    -9999      159.7617   536.0823   49.8024    45.76382   0.4814     -9999      -9999      2.0587     3.2438     3.1157     -9999      -9999     
335.636    12.25      15.0685    -9999      158.4684   538.8122   47.6673    44.16003   0.4797     -9999      -9999      2.0645     3.2842     3.1633     -9999      -9999     
335.7884   12.25      14.9746    -9999      157.5967   532.7515   45.8751    42.81381   0.4755     -9999      -9999      2.0643     3.3579     3.2075     -9999      -9999     
335.9408   12.25      14.8912    -9999      157.269    524.9542   45.5936    42.60236   0.47       -9999      -9999      2.0583     3.4528     3.2782     -9999      -9999     
336.0932   12.25      14.865     -9999      157.5104   520.028    45.6882    42.67342   0.4622     -9999      -9999      2.0483     3.4823     3.3288     -9999      -9999     
336.2456   12.25      14.8862    -9999      158.4362   517.5671   45.2311    42.33007   0.4545     -9999      -9999      2.0368     3.4191     3.2963     -9999      -9999     
336.398    12.25      14.9302    -9999      160.1595   515.314    45.3217    42.39812   0.4561     -9999      -9999      2.0247     3.3329     3.2212     -9999      -9999     
336.5504   12.25      14.9749    -9999      162.3586   512.7921   46.6757    43.41519   0.4634     -9999      -9999      2.0127     3.2882     3.1818     -9999      -9999     
336.7028   12.25      15.0222    -9999      164.1552   510.1436   48.0565    44.45238   0.4702     -9999      -9999      2.0035     3.2827     3.192      -9999      -9999     
336.8552   12.25      15.098     -9999      164.7705   505.7617   48.5323    44.80978   0.4756     -9999      -9999      2.0007     3.2827     3.2058     -9999      -9999     
337.0076   12.25      15.2128    -9999      164.2581   499.1298   48.7233    44.95325   0.4822     -9999      -9999      2.0041     3.2647     3.1734     -9999      -9999     
337.16     12.25      15.3395    -9999      163.1766   491.9485   48.9928    45.15569   0.4964     -9999      -9999      2.0092     3.2265     3.0863     -9999      -9999     
337.3124   12.25      15.4095    -9999      162.0432   486.3896   49.3647    45.43504   0.5168     -9999      -9999      2.0125     3.1919     2.996      -9999      -9999     
337.4648   12.25      15.4006    -9999      161.3567   485.0444   50.5726    46.34235   0.529      -9999      -9999      2.0156     3.1815     2.9575     -9999      -9999     
337.6172   12.25      15.3503    -9999      161.3932   488.4907   52.5733    47.84519   0.5261     -9999      -9999      2.0212     3.1859     2.9811     -9999      -9999     
337.7696   12.25      15.31      -9999      161.8233   496.6491   53.7468    48.72667   0.5187     -9999      -9999      2.03       3.1935     3.0473     -9999      -9999     
337.922    12.25      15.2895    -9999      161.9806   507.3571   53.0968    48.23842   0.5167     -9999      -9999      2.042      3.2014     3.1087     -9999      -9999     
338.0744   12.25      15.2954    -9999      161.6669   516.7314   51.5332    47.06391   0.5174     -9999      -9999      2.0576     3.2082     3.1341     -9999      -9999     
338.2268   12.25      15.3849    -9999      161.3449   521.5297   50.2822    46.12422   0.509      -9999      -9999      2.0753     3.2221     3.1364     -9999      -9999     
338.3792   12.25      15.5991    -9999      161.3919   -9999      49.5937    45.60705   0.4936     -9999      -9999      2.0908     3.2396     3.1365     -9999      -9999     
338.5316   12.25      15.8525    -9999      161.8826   -9999      49.1435    45.26888   0.4837     -9999      -9999      2.0985     3.2377     3.1229     -9999      -9999     
338.684    12.25      16.0418    -9999      162.7273   -9999      48.6917    44.92951   0.4798     -9999      -9999      2.0947     3.2109     3.0824     -9999      -9999     
338.8364   12.25      16.1468    -9999      163.4551   -9999      48.2682    44.6114    0.4765     -9999      -9999      2.0805     3.1755     3.0236     -9999      -9999     
338.9888   12.25      16.1299    -9999      163.5842   -9999      48.2247    44.57872   0.4798     -9999      -9999      2.0617     3.1441     2.9757     -9999      -9999     
339.1412   12.25      16.0471    -9999      163.1925   -9999      49.0314    45.18468   0.4896     -9999      -9999      2.0435     3.112      2.9596     -9999      -9999     
339.2936   12.25      15.9694    -9999      162.703    -9999      50.7699    46.49056   0.4948     -9999      -9999      2.0276     3.0719     2.9517     -9999      -9999     
339.446    12.25      15.7145    -9999      162.4642   501.5247   52.8624    48.06235   0.4944     -9999      -9999      2.0143     3.0351     2.9341     -9999      -9999     
339.5984   12.25      15.4281    -9999      162.6226   516.5481   54.1176    49.00519   0.4978     -9999      -9999      2.004      3.0118     2.9131     -9999      -9999     
339.7508   12.25      15.3149    -9999      163.0715   532.4253   53.6942    48.68715   0.5071     -9999      -9999      1.9968     2.9885     2.8798     -9999      -9999     
339.9032   12.25      15.3202    -9999      163.5525   543.1551   51.9566    47.38195   0.5114     -9999      -9999      1.9917     2.9564     2.8345     -9999      -9999     
340.0556   12.25      15.2928    -9999      163.8617   548.4636   50.0697    45.9646    0.5063     -9999      -9999      1.9887     2.9372     2.8135     -9999      -9999     
