~Version
 VERS              .         3.0                           : CWLS LOG ASCII STANDARD - VERSION 3.0
 WRAP              .         NO                            : ONE LINE PER DEPTH STEP
 DLM               .         SPACE                         : DELIMITING CHARACTER(SPACE TAB OR COMMA)
~Well Information
#_______________________________________________________________________________
#
#PARAMETER_NAME    .UNIT     VALUE                         : DESCRIPTION
#_______________________________________________________________________________
STRT               .M        200                           : First reference value
STOP               .M        2131.9748                     : Last reference value
STEP               .M        0.1524                        : Step increment
NULL               .         -9999                         : Missing value
COMP               .         PEMEX                         : Company
WELL               .         YETIC-1                       : Well name
FLD                .         YETIC                         : Field
LOC                .         PLAT. PRIDE WISCONSIN         : Location
SRVC               .         TEMPLE                        : Service Company
CTRY               .         MX                            : Country
DATE               .         01-Julio-2005                 : Service Date
X                  .M        364558.478                    : X or East-West coordinate
Y                  .M        2032524.533                   : Y or North South coordinate
GDAT               .                                       : Geodetic Datum
HZCS               .                                       : Horizontal Co-ordinate System
ACTIVO             .         ACTIVO REGIONAL EXPLORACION MARINA: 
APD                .                                       : Above Perm Datum
API                .                                       : API Number
CLASS              .         01-01-01                      : 
CNTY               .         COATZACOALCOS                 : County
CRSTATUS           .         1                             : 
CURRENT_CL         .         1                             : 
COUNTRY            .         Mexico                        : Mexico
DEVIATION_         .                                       : 
DISTRICT           .         278                           : 
DMF                .                                       : Drill Measured From
EDF                .         30.000000                     : Elev-Drill Floor
EGL                .         -42.000000                    : Elev-Ground Level
EKB                .         30.300000                     : Elev-Kelly Bushing.
EPD                .                                       : Elevation
EREF               .         33                            : 
FIELD              .         90016                         : 
FORM_AT_TD         .         PLI                           : 
Fecha_de_Inicio    .         01/01/2001                    : 01/01/2008
GEOLOGICAL         .                                       : 
GEOLOGIC_P         .         CUENCA SALINA DEL ISTMO       : 
INSERTED_B         .                                       : 
LAST_UPDAT         .         05-07-10                      : 
LMF                .                                       : Log Measured From
LOC1               .                                       : Location 1
NODE_ID            .         2595768                       : 
OBJECTID           .         15377                         : 
OPERATOR           .         PEP                           : 
ORIGINALWELLNAME   .         Yetic-1                       : 
PDAT               .                                       : Perm Datum
PERIODO            .         TERCIARIO                     : 
PRIMARY_SO         .         PEP                           : 
PROY_INV           .         COATZACOALCOS                 : 
Provincia          .          SALINA DEL ISTMO             :  PILAR REFORMA-AKAL
Proyecto           .         UCHUKIL                       : CAMPECHE ORIENTE
RNGE               .                                       : Range
RT_ELEVATI         .         33                            : 
SECT               .                                       : Section
SHORT_NAME         .         Yetic-1                       : 
SITUACION          .         PRODUCTOR DE GAS Y CONDENSADO : 
SITUATION          .         TAP                           : 
STAT               .         VERACRUZ                      : State
WSTA               .         PRODUCTOR DE ACEITE Y GAS     : TAPONADO POR ACCIDENTE MECANICO DURANTE LA PERFORACION
TIPO_DE_HCS        .                                       :  
TOWN               .                                       : Township
TVD                .         2122                          : 
TD                 .M        0                             : 0
UPDATED_BY         .         LESPEJEL                      : 
UWI                .         3060000972                    : 0
WATER_REF          .         SL                            : 
WELL_NUMBE         .         1                             : 
WELL_TYPE          .         MARINO                        : 
Water_depth        .         42                            : 40
XCOORD             .         364558.3961                   : MapXCoordinate
YCOORD             .         2032524.8110                  : MapYCoordinate
group              .         02 Octli Cahua.Block 3 A      : 
~Parameter Information Block
#_______________________________________________________________________________
#
#PARAMETER_NAME    .UNIT     VALUE                         : DESCRIPTION
#_______________________________________________________________________________
SET                .         LQC                           : 
TLFamily_BS        .         Bit Size                      : 
TLFamily_CALI      .         Caliper                       : 
TLFamily_CGR       .         Gamma Ray Minus Uranium       : 
TLFamily_DT        .         Compressional Slowness        : 
TLFamily_DTS       .         Shear Slowness                : 
TLFamily_GR        .         Gamma Ray                     : 
TLFamily_GR_EDITED .         Gamma Ray                     : 
TLFamily_MD        .         Measured Depth                : 
TLFamily_NPHI      .         Neutron Porosity              : 
TLFamily_NPHI_EDITED .         Neutron Porosity              : 
TLFamily_POTA      .         Potassium Concentration       : 
TLFamily_RHOB      .         Bulk Density                  : 
TLFamily_RP        .         Resistivity - Deep            : 
TLFamily_RS        .         Resistivity - Shallow         : 
TLFamily_THOR      .         Thorium Concentration         : 
TLFamily_URAN      .         Uranium Concentration         : 
group              .         Registros Editados            : 
~Curve Information
#_______________________________________________________________________________
#
#LOGNAME           .UNIT     LOG_ID                        : DESCRIPTION
#_______________________________________________________________________________
DEPTH              .M                                      :  {F}
BS                 .in                                     :  {F}
CALI               .in                                     :  {F}
CGR                .gAPI                                   :  {F}
DT                 .us/ft                                  :  {F}
DTS                .us/ft                                  :  {F}
GR                 .gAPI                                   :  {F}
GR_EDITED          .gAPI                                   : Normalized by Techlog {F}
NPHI               .V/V                                    :  {F}
NPHI_EDITED        .m3/m3                                  : Normalized by Techlog {F}
POTA               .%                                      :  {F}
RHOB               .g/cc                                   :  {F}
RP                 .OHMM                                   :  {F}
RS                 .OHMM                                   :  {F}
THOR               .ppm                                    :  {F}
URAN               .ppm                                    :  {F}
~Ascii
# ...
1985.0612  8.5        9.7681     64.2938    106.6357   240.4863   90.1447    76.06707   0.5008     0.4550677  2.7067     2.0902     0.7496     0.7257     7.0654     1.6628    
1985.2136  8.5        9.908      63.5265    106.265    239.1576   88.2672    74.65678   0.4966     0.4506743  2.8334     2.0746     0.7561     0.7312     7.5582     1.4226    
1985.366   8.5        10.237     62.3871    106.5203   239.4997   87.6047    74.15913   0.4913     0.4451303  2.9363     2.0709     0.7608     0.7398     7.9856     1.2899    
1985.5184  8.5        10.7999    60.9207    107.2705   241.2934   88.2835    74.66902   0.4846     0.4381219  3.0183     2.0745     0.7625     0.7468     8.3482     1.2951    
1985.6708  8.5        11.5403    61.0369    108.1959   244.3577   89.2171    75.3703    0.483      0.4364482  3.1574     2.0749     0.754      0.7418     8.8514     1.2862    
1985.8232  8.5        12.1099    62.8329    109.1944   248.5442   89.8635    75.85585   0.4882     0.4418876  3.2892     2.0711     0.7354     0.7217     9.4143     1.1606    
1985.9756  8.5        12.3866    66.2988    110.124    253.3933   90.2238    76.12649   0.4854     0.4389587  3.3192     2.0726     0.722      0.6979     9.7295     1.0777    
1986.128   8.5        12.6124    69.2005    110.7034   258.0219   91.1084    76.79095   0.4694     0.4222222  3.2238     2.0827     0.7208     0.6871     9.6257     1.2631    
1986.2804  8.5        12.8285    71.6613    110.8498   261.4009   93.4927    78.58193   0.4565     0.4087283  3.1132     2.0923     0.7201     0.6881     9.2455     1.5834    
1986.4328  8.5        12.9263    75.3843    110.5613   262.7809   96.3189    80.70484   0.4574     0.4096698  3.0629     2.0924     0.7195     0.6903     8.8171     1.8558    
1986.5852  8.5        12.8738    79.1677    109.7577   262.0814   97.7438    81.77516   0.4651     0.4177242  3.0892     2.0844     0.7295     0.7047     8.5001     1.9606    
1986.7376  8.5        12.7684    80.6729    108.6783   259.8889   96.9142    81.152     0.4665     0.4191887  3.1529     2.076      0.7399     0.7245     8.4085     1.8898    
1986.89    8.5        12.6155    78.9572    107.8016   257.0364   95.2392    79.89381   0.4595     0.4118664  3.1931     2.0757     0.7364     0.7225     8.4697     1.7337    
1987.0424  8.5        12.1603    76.1352    107.2357   254.329    94.7734    79.54393   0.4521     0.4041258  3.1765     2.0872     0.7286     0.7091     8.3415     1.5704    
1987.1948  8.5        11.6127    73.9314    106.7987   252.1038   95.5119    80.09866   0.4498     0.4017199  3.1648     2.1046     0.7283     0.7065     8.1333     1.4677    
1987.3472  8.5        11.5999    73.2036    106.3866   250.263    96.4949    80.83705   0.4514     0.4033936  3.2203     2.115      0.7353     0.7105     8.1828     1.4623    
1987.4996  8.5        12.0831    73.765     105.994    248.6774   96.9739    81.19685   0.4562     0.4084145  3.2514     2.1106     0.7422     0.718      8.3183     1.5344    
1987.652   8.5        12.5239    74.4899    105.8756   247.5395   97.0412    81.2474    0.4646     0.4172012  3.2034     2.0956     0.7388     0.7195     8.2683     1.7373    
1987.8044  8.5        12.7244    73.8019    106.4028   247.157    96.9077    81.14712   0.4716     0.4245234  3.0955     2.0803     0.7282     0.705      7.9629     2.0349    
1987.9568  8.5        12.8268    72.9711    107.3554   247.4268   96.2235    80.63318   0.4724     0.4253603  2.9986     2.0731     0.7241     0.6952     7.5806     2.2861    
1988.1092  8.5        12.9238    73.9385    107.992    247.8059   95.0314    79.73773   0.4685     0.4212807  2.9549     2.0758     0.7268     0.7012     7.2961     2.4095    
1988.2616  8.5        12.9845    74.791     108.0025   247.7714   93.5528    78.62708   0.4631     0.4156321  2.9348     2.0824     0.7287     0.7096     7.1098     2.4682    
1988.414   8.5        13.0088    73.884     107.7467   247.1792   92.6866    77.97643   0.4612     0.4136447  2.879      2.0857     0.7293     0.7145     6.9805     2.5659    
1988.5664  8.5        13.044     71.3507    107.6505   246.3537   93.2045    78.36545   0.4661     0.4187703  2.7657     2.085      0.7306     0.7178     6.9145     2.7407    
1988.7188  8.5        13.0938    68.6904    107.8948   245.9114   94.9357    79.66585   0.4783     0.4315319  2.6457     2.0837     0.7312     0.7188     6.9315     2.9317    
1988.8712  8.5        13.1223    67.0749    108.5829   246.6558   96.3172    80.70357   0.4907     0.4445027  2.5748     2.0814     0.7286     0.7157     6.855      3.1136    
1989.0236  8.5        13.134     66.1312    109.8248   249.4116   95.7764    80.29733   0.4915     0.4453395  2.5786     2.0762     0.7226     0.7098     6.6446     3.2595    
1989.176   8.5        13.1417    64.8932    111.5271   254.0206   94.862     79.61049   0.4831     0.4365528  2.6319     2.072      0.7148     0.7017     6.6314     3.26      
1989.3284  8.5        13.1102    63.0833    113.1058   259.0335   94.6759    79.4707    0.4771     0.4302767  2.7217     2.0749     0.7064     0.6886     7.0113     3.0348    
1989.4808  8.5        13.0229    61.4411    113.6811   262.4405   95.3933    80.00957   0.4792     0.4324733  2.808      2.0835     0.6985     0.6712     7.5942     2.7208    
1989.6332  8.5        12.9363    60.1508    112.9095   263.0048   94.852     79.60297   0.487      0.4406324  2.8735     2.0909     0.6921     0.6572     8.1369     2.4244    
1989.7856  8.5        12.864     59.5011    111.2877   261.4792   93.6518    78.70144   0.4938     0.4477454  2.9023     2.0922     0.6927     0.6546     8.4746     2.2431    
1989.938   8.5        12.7273    60.2469    109.4981   259.4751   92.8743    78.11742   0.4972     0.4513019  2.8817     2.0854     0.71       0.6741     8.5133     2.2073    
1990.0904  8.5        12.3498    62.8489    107.9801   257.984    93.0837    78.27471   0.5022     0.4565321  2.816      2.065      0.7405     0.7184     8.263      2.2547    
1990.2428  8.5        11.4656    66.0404    107.058    257.0811   92.8314    78.08519   0.5141     0.4689799  2.7163     2.0317     0.7632     0.7601     7.7742     2.2586    
1990.3952  8.5        10.3042    68.8624    107.0358   256.5735   91.6934    77.23038   0.5291     0.4846704  2.6286     2.0031     0.763      0.7682     7.2555     2.222     
1990.5476  8.5        9.5358     70.4374    108.0194   256.7763   90.7193    76.49869   0.5377     0.4936663  2.6281     2.0019     0.7469     0.7402     7.0308     2.1747    
1990.7     8.5        9.3429     70.2528    109.6511   258.2999   91.875     77.36679   0.5332     0.4889592  2.6736     2.0325     0.734      0.7067     7.0393     2.1382    
1990.8524  8.5        9.6046     68.4906    111.2138   261.3433   95.5682    80.14095   0.5178     0.4728502  2.7633     2.0754     0.7312     0.6945     7.1608     2.1253    
1991.0048  8.5        10.1508    65.3854    112.211    265.5439   99.0198    82.73363   0.5013     0.4555906  2.8673     2.1063     0.7294     0.694      7.336      2.1466    
1991.1572  8.5        10.8796    62.3794    112.6553   270.2268   101.5662   84.64637   0.4894     0.4431429  2.9695     2.1149     0.7231     0.6916     7.4974     2.2115    
1991.3096  8.5        11.7264    61.6302    112.7336   274.9529   102.0126   84.98168   0.4811     0.4344608  3.0569     2.1077     0.7248     0.692      7.5963     2.337     
1991.462   8.5        12.502     62.2247    112.5724   279.9092   101.7593   84.79141   0.4745     0.4275569  3.0823     2.0982     0.7457     0.7087     7.6724     2.4677    
1991.6144  8.5        12.9908    63.9145    112.3517   285.6494   100.3999   83.77029   0.4712     0.424105   3.0077     2.0952     0.7629     0.7295     7.8289     2.5322    
1991.7668  8.5        13.1489    65.9678    112.3121   292.0434   99.0363    82.74603   0.4765     0.429649   2.9025     2.0969     0.7513     0.7178     8.1772     2.5103    
1991.9192  8.5        13.1632    67.9513    112.4785   297.5866   97.9466    81.92749   0.493      0.4469086  2.8018     2.0944     0.7291     0.6885     8.6032     2.4654    
