~Version
 VERS              .         3.0                           : CWLS LOG ASCII STANDARD - VERSION 3.0
 WRAP              .         NO                            : ONE LINE PER DEPTH STEP
 DLM               .         SPACE                         : DELIMITING CHARACTER(SPACE TAB OR COMMA)
~Well Information
#_______________________________________________________________________________
#
#PARAMETER_NAME    .UNIT     VALUE                         : DESCRIPTION
#_______________________________________________________________________________
STRT               .M        200                           : First reference value
STOP               .M        2131.9748                     : Last reference value
STEP               .M        0.1524                        : Step increment
NULL               .         -9999                         : Missing value
COMP               .         PEMEX                         : Company
WELL               .         YETIC-1                       : Well name
FLD                .         YETIC                         : Field
LOC                .         PLAT. PRIDE WISCONSIN         : Location
SRVC               .         TEMPLE                        : Service Company
CTRY               .         MX                            : Country
DATE               .         01-Julio-2005                 : Service Date
X                  .M        364558.478                    : X or East-West coordinate
Y                  .M        2032524.533                   : Y or North South coordinate
GDAT               .                                       : Geodetic Datum
HZCS               .                                       : Horizontal Co-ordinate System
ACTIVO             .         ACTIVO REGIONAL EXPLORACION MARINA: 
APD                .                                       : Above Perm Datum
API                .                                       : API Number
CLASS              .         01-01-01                      : 
CNTY               .         COATZACOALCOS                 : County
CRSTATUS           .         1                             : 
CURRENT_CL         .         1                             : 
COUNTRY            .         Mexico                        : Mexico
DEVIATION_         .                                       : 
DISTRICT           .         278                           : 
DMF                .                                       : Drill Measured From
EDF                .         30.000000                     : Elev-Drill Floor
EGL                .         -42.000000                    : Elev-Ground Level
EKB                .         30.300000                     : Elev-Kelly Bushing.
EPD                .                                       : Elevation
EREF               .         33                            : 
FIELD              .         90016                         : 
FORM_AT_TD         .         PLI                           : 
Fecha_de_Inicio    .         01/01/2001                    : 01/01/2008
GEOLOGICAL         .                                       : 
GEOLOGIC_P         .         CUENCA SALINA DEL ISTMO       : 
INSERTED_B         .                                       : 
LAST_UPDAT         .         05-07-10                      : 
LMF                .                                       : Log Measured From
LOC1               .                                       : Location 1
NODE_ID            .         2595768                       : 
OBJECTID           .         15377                         : 
OPERATOR           .         PEP                           : 
ORIGINALWELLNAME   .         Yetic-1                       : 
PDAT               .                                       : Perm Datum
PERIODO            .         TERCIARIO                     : 
PRIMARY_SO         .         PEP                           : 
PROY_INV           .         COATZACOALCOS                 : 
Provincia          .          SALINA DEL ISTMO             :  PILAR REFORMA-AKAL
Proyecto           .         UCHUKIL                       : CAMPECHE ORIENTE
RNGE               .                                       : Range
RT_ELEVATI         .         33                            : 
SECT               .                                       : Section
SHORT_NAME         .         Yetic-1                       : 
SITUACION          .         PRODUCTOR DE GAS Y CONDENSADO : 
SITUATION          .         TAP                           : 
STAT               .         VERACRUZ                      : State
WSTA               .         PRODUCTOR DE ACEITE Y GAS     : TAPONADO POR ACCIDENTE MECANICO DURANTE LA PERFORACION
TIPO_DE_HCS        .                                       :  
TOWN               .                                       : Township
TVD                .         2122                          : 
TD                 .M        0                             : 0
UPDATED_BY         .         LESPEJEL                      : 
UWI                .         3060000972                    : 0
WATER_REF          .         SL                            : 
WELL_NUMBE         .         1                             : 
WELL_TYPE          .         MARINO                        : 
Water_depth        .         42                            : 40
XCOORD             .         364558.3961                   : MapXCoordinate
YCOORD             .         2032524.8110                  : MapYCoordinate
group              .         02 Octli Cahua.Block 3 A      : 
~Parameter Information Block
#_______________________________________________________________________________
#
#PARAMETER_NAME    .UNIT     VALUE                         : DESCRIPTION
#_______________________________________________________________________________
SET                .         LQC                           : 
TLFamily_BS        .         Bit Size                      : 
TLFamily_CALI      .         Caliper                       : 
TLFamily_CGR       .         Gamma Ray Minus Uranium       : 
TLFamily_DT        .         Compressional Slowness        : 
TLFamily_DTS       .         Shear Slowness                : 
TLFamily_GR        .         Gamma Ray                     : 
TLFamily_GR_EDITED .         Gamma Ray                     : 
TLFamily_MD        .         Measured Depth                : 
TLFamily_NPHI      .         Neutron Porosity              : 
TLFamily_NPHI_EDITED .         Neutron Porosity              : 
TLFamily_POTA      .         Potassium Concentration       : 
TLFamily_RHOB      .         Bulk Density                  : 
TLFamily_RP        .         Resistivity - Deep            : 
TLFamily_RS        .         Resistivity - Shallow         : 
TLFamily_THOR      .         Thorium Concentration         : 
TLFamily_URAN      .         Uranium Concentration         : 
group              .         Registros Editados            : 
~Curve Information
#_______________________________________________________________________________
#
#LOGNAME           .UNIT     LOG_ID                        : DESCRIPTION
#_______________________________________________________________________________
DEPTH              .M                                      :  {F}
BS                 .in                                     :  {F}
CALI               .in                                     :  {F}
CGR                .gAPI                                   :  {F}
DT                 .us/ft                                  :  {F}
DTS                .us/ft                                  :  {F}
GR                 .gAPI                                   :  {F}
GR_EDITED          .gAPI                                   : Normalized by Techlog {F}
NPHI               .V/V                                    :  {F}
NPHI_EDITED        .m3/m3                                  : Normalized by Techlog {F}
POTA               .%                                      :  {F}
RHOB               .g/cc                                   :  {F}
RP                 .OHMM                                   :  {F}
RS                 .OHMM                                   :  {F}
THOR               .ppm                                    :  {F}
URAN               .ppm                                    :  {F}
~Ascii
# ...
207.0104   12.25      17.5574    -9999      160.1505   -9999      27.4701    28.98883   0.5091     -9999      -9999      -9999      5.7451     3.0189     -9999      -9999     
207.1628   12.25      16.8861    -9999      160.4678   -9999      27.3087    28.8676    0.4529     -9999      -9999      2.1313     6.0354     3.2996     -9999      -9999     
207.3152   12.25      16.4296    -9999      160.642    -9999      28.0579    29.43036   0.3853     -9999      -9999      2.1707     6.8426     3.8533     -9999      -9999     
207.4676   12.25      16.1501    -9999      160.6695   -9999      28.6368    29.86521   0.3302     -9999      -9999      2.1948     7.487      4.3584     -9999      -9999     
207.62     12.25      16.1471    -9999      160.5191   -9999      28.4486    29.72384   0.3102     -9999      -9999      2.2066     7.6316     4.5931     -9999      -9999     
207.7724   12.25      16.5542    -9999      160.5753   -9999      27.3935    28.9313    0.325      -9999      -9999      2.2032     7.0833     4.4272     -9999      -9999     
207.9248   12.25      17.0619    -9999      160.5871   -9999      25.6495    27.62128   0.3594     -9999      -9999      2.1944     6.1421     4.0651     -9999      -9999     
208.0772   12.25      17.2716    -9999      159.6438   -9999      23.8508    26.27018   0.3849     -9999      -9999      2.2004     5.4249     3.8564     -9999      -9999     
208.2296   12.25      17.1613    -9999      157.8913   -9999      23.1072    25.71163   0.3902     -9999      -9999      2.2256     5.1949     4.0188     -9999      -9999     
208.382    12.25      17.0066    -9999      156.5584   -9999      24.0347    26.40832   0.3839     -9999      -9999      2.2543     5.1087     4.3535     -9999      -9999     
208.5344   12.25      17.1848    -9999      156.1885   -9999      25.7448    27.69287   0.382      -9999      -9999      2.269      4.7598     4.2633     -9999      -9999     
208.6868   12.25      17.6335    -9999      156.6617   -9999      26.5672    28.31062   0.391      -9999      -9999      2.2636     4.2209     3.7132     -9999      -9999     
208.8392   12.25      18.0815    -9999      157.8737   -9999      26.0762    27.9418    0.4054     -9999      -9999      2.2401     3.7168     3.1746     -9999      -9999     
208.9916   12.25      18.4241    -9999      159.7543   -9999      25.764     27.70729   0.4268     -9999      -9999      2.2026     3.2785     2.8117     -9999      -9999     
209.144    12.25      18.6186    -9999      162.087    -9999      27.1374    28.73893   0.4525     -9999      -9999      2.1576     2.9078     2.5768     -9999      -9999     
209.2964   12.25      18.7073    -9999      164.4087   561.8106   29.7044    30.66714   0.4709     -9999      -9999      2.1149     2.6418     2.4598     -9999      -9999     
209.4488   12.25      18.7586    -9999      165.8713   559.689    31.3393    31.8952    0.479      -9999      -9999      2.0846     2.492      2.4705     -9999      -9999     
209.6012   12.25      18.7243    -9999      165.732    553.2347   30.8364    31.51744   0.4818     -9999      -9999      2.0708     2.5327     2.5345     -9999      -9999     
209.7536   12.25      18.5794    -9999      164.3513   548.3835   29.9326    30.83855   0.4826     -9999      -9999      2.0695     2.9218     2.7689     -9999      -9999     
209.906    12.25      18.3571    -9999      162.8303   550.6781   31.0114    31.64889   0.4792     -9999      -9999      2.0757     3.7123     3.2361     -9999      -9999     
210.0584   12.25      18.0968    -9999      162.2106   558.9529   33.4887    33.50973   0.4727     -9999      -9999      2.0877     4.6697     3.8371     -9999      -9999     
210.2108   12.25      17.7913    -9999      163.0998   568.2051   35.1576    34.76333   0.462      -9999      -9999      2.1038     5.4863     4.3667     -9999      -9999     
210.3632   12.25      17.4142    -9999      165.0928   575.481    35.6588    35.1398    0.4467     -9999      -9999      2.1202     6.2518     5.016      -9999      -9999     
210.5156   12.25      16.9578    -9999      166.9119   580.8643   36.1941    35.5419    0.4322     -9999      -9999      2.1311     7.2338     6.1884     -9999      -9999     
210.668    12.25      16.6495    -9999      167.5475   579.6818   36.8295    36.01918   0.4273     -9999      -9999      2.1298     8.0046     7.5066     -9999      -9999     
210.8204   12.25      16.6359    -9999      167.0196   572.3354   36.5557    35.81351   0.4349     -9999      -9999      2.1113     7.8373     7.554      -9999      -9999     
210.9728   12.25      16.7731    -9999      165.966    564.9136   35.604     35.09864   0.4442     -9999      -9999      2.0812     6.9135     6.3434     -9999      -9999     
211.1252   12.25      16.8274    -9999      164.9415   558.3656   35.5631    35.06792   0.4461     -9999      -9999      2.0578     5.8917     5.1979     -9999      -9999     
211.2776   12.25      16.5894    -9999      164.339    552.5393   37.2308    36.32062   0.443      -9999      -9999      2.0549     5.1809     4.5071     -9999      -9999     
211.43     12.25      16.2192    -9999      164.3602   551.0814   39.5312    38.04857   0.4413     -9999      -9999      2.0666     5.1789     4.3462     -9999      -9999     
211.5824   12.25      15.9764    -9999      164.7805   545.4648   42.1478    40.01404   0.442      -9999      -9999      2.0748     5.9399     4.8017     -9999      -9999     
211.7348   12.25      15.9324    -9999      165.2478   543.1654   43.0082    40.66033   0.445      -9999      -9999      2.0686     6.8935     5.3664     -9999      -9999     
211.8872   12.25      15.9531    -9999      165.7712   543.1525   43.9088    41.33682   0.4497     -9999      -9999      2.0517     7.6077     5.6242     -9999      -9999     
212.0396   12.25      15.973     -9999      166.5559   541.9513   44.4762    41.76302   0.453      -9999      -9999      2.0343     8.0207     5.7655     -9999      -9999     
212.192    12.25      16.0614    -9999      167.6126   536.8692   44.7535    41.97132   0.4543     -9999      -9999      2.0233     8.0992     5.8758     -9999      -9999     
212.3444   12.25      16.2102    -9999      168.6363   527.7513   45.1597    42.27644   0.4548     -9999      -9999      2.0188     7.9896     5.8791     -9999      -9999     
212.4968   12.25      16.3393    -9999      169.1226   520.2732   45.2626    42.35373   0.4541     -9999      -9999      2.0184     7.9195     5.9289     -9999      -9999     
212.6492   12.25      16.4398    -9999      168.9349   522.2469   44.4506    41.74379   0.4538     -9999      -9999      2.0207     7.8805     6.1211     -9999      -9999     
212.8016   12.25      16.5108    -9999      168.5302   532.8152   43.5847    41.09337   0.4566     -9999      -9999      2.024      7.8608     6.3489     -9999      -9999     
212.954    12.25      16.5053    -9999      168.2547   544.5783   43.7769    41.23774   0.464      -9999      -9999      2.0242     7.9478     6.6544     -9999      -9999     
213.1064   12.25      16.5173    -9999      168.1061   551.6657   44.5785    41.83987   0.4764     -9999      -9999      2.0187     8.0178     6.9428     -9999      -9999     
213.2588   12.25      16.7264    -9999      168.1388   552.1383   45.2221    42.32331   0.4845     -9999      -9999      2.0106     7.9011     6.8472     -9999      -9999     
213.4112   12.25      17.022     -9999      168.5541   549.6144   45.5933    42.60214   0.4853     -9999      -9999      2.0052     7.6753     6.5108     -9999      -9999     
213.5636   12.25      17.2163    -9999      169.6886   548.3656   45.3415    42.41299   0.4864     -9999      -9999      2.0056     7.4481     6.2556     -9999      -9999     
213.716    12.25      17.2751    -9999      171.429    548.0557   44.3965    41.70316   0.4903     -9999      -9999      2.0121     7.2319     6.0418     -9999      -9999     
213.8684   12.25      17.1979    -9999      172.5228   545.9439   43.5736    41.08503   0.4984     -9999      -9999      2.0233     7.1098     5.6474     -9999      -9999     
