~Version
 VERS              .         3.0                           : CWLS LOG ASCII STANDARD - VERSION 3.0
 WRAP              .         NO                            : ONE LINE PER DEPTH STEP
 DLM               .         SPACE                         : DELIMITING CHARACTER(SPACE TAB OR COMMA)
~Well Information
#_______________________________________________________________________________
#
#PARAMETER_NAME    .UNIT     VALUE                         : DESCRIPTION
#_______________________________________________________________________________
STRT               .M        200                           : First reference value
STOP               .M        2131.9748                     : Last reference value
STEP               .M        0.1524                        : Step increment
NULL               .         -9999                         : Missing value
COMP               .         PEMEX                         : Company
WELL               .         YETIC-1                       : Well name
FLD                .         YETIC                         : Field
LOC                .         PLAT. PRIDE WISCONSIN         : Location
SRVC               .         TEMPLE                        : Service Company
CTRY               .         MX                            : Country
DATE               .         01-Julio-2005                 : Service Date
X                  .M        364558.478                    : X or East-West coordinate
Y                  .M        2032524.533                   : Y or North South coordinate
GDAT               .                                       : Geodetic Datum
HZCS               .                                       : Horizontal Co-ordinate System
ACTIVO             .         ACTIVO REGIONAL EXPLORACION MARINA: 
APD                .                                       : Above Perm Datum
API                .                                       : API Number
CLASS              .         01-01-01                      : 
CNTY               .         COATZACOALCOS                 : County
CRSTATUS           .         1                             : 
CURRENT_CL         .         1                             : 
COUNTRY            .         Mexico                        : Mexico
DEVIATION_         .                                       : 
DISTRICT           .         278                           : 
DMF                .                                       : Drill Measured From
EDF                .         30.000000                     : Elev-Drill Floor
EGL                .         -42.000000                    : Elev-Ground Level
EKB                .         30.300000                     : Elev-Kelly Bushing.
EPD                .                                       : Elevation
EREF               .         33                            : 
FIELD              .         90016                         : 
FORM_AT_TD         .         PLI                           : 
Fecha_de_Inicio    .         01/01/2001                    : 01/01/2008
GEOLOGICAL         .                                       : 
GEOLOGIC_P         .         CUENCA SALINA DEL ISTMO       : 
INSERTED_B         .                                       : 
LAST_UPDAT         .         05-07-10                      : 
LMF                .                                       : Log Measured From
LOC1               .                                       : Location 1
NODE_ID            .         2595768                       : 
OBJECTID           .         15377                         : 
OPERATOR           .         PEP                           : 
ORIGINALWELLNAME   .         Yetic-1                       : 
PDAT               .                                       : Perm Datum
PERIODO            .         TERCIARIO                     : 
PRIMARY_SO         .         PEP                           : 
PROY_INV           .         COATZACOALCOS                 : 
Provincia          .          SALINA DEL ISTMO             :  PILAR REFORMA-AKAL
Proyecto           .         UCHUKIL                       : CAMPECHE ORIENTE
RNGE               .                                       : Range
RT_ELEVATI         .         33                            : 
SECT               .                                       : Section
SHORT_NAME         .         Yetic-1                       : 
SITUACION          .         PRODUCTOR DE GAS Y CONDENSADO : 
SITUATION          .         TAP                           : 
STAT               .         VERACRUZ                      : State
WSTA               .         PRODUCTOR DE ACEITE Y GAS     : TAPONADO POR ACCIDENTE MECANICO DURANTE LA PERFORACION
TIPO_DE_HCS        .                                       :  
TOWN               .                                       : Township
TVD                .         2122                          : 
TD                 .M        0                             : 0
UPDATED_BY         .         LESPEJEL                      : 
UWI                .         3060000972                    : 0
WATER_REF          .         SL                            : 
WELL_NUMBE         .         1                             : 
WELL_TYPE          .         MARINO                        : 
Water_depth        .         42                            : 40
XCOORD             .         364558.3961                   : MapXCoordinate
YCOORD             .         2032524.8110                  : MapYCoordinate
group              .         02 Octli Cahua.Block 3 A      : 
~Parameter Information Block
#_______________________________________________________________________________
#
#PARAMETER_NAME    .UNIT     VALUE                         : DESCRIPTION
#_______________________________________________________________________________
SET                .         LQC                           : 
TLFamily_BS        .         Bit Size                      : 
TLFamily_CALI      .         Caliper                       : 
TLFamily_CGR       .         Gamma Ray Minus Uranium       : 
TLFamily_DT        .         Compressional Slowness        : 
TLFamily_DTS       .         Shear Slowness                : 
TLFamily_GR        .         Gamma Ray                     : 
TLFamily_GR_EDITED .         Gamma Ray                     : 
TLFamily_MD        .         Measured Depth                : 
TLFamily_NPHI      .         Neutron Porosity              : 
TLFamily_NPHI_EDITED .         Neutron Porosity              : 
TLFamily_POTA      .         Potassium Concentration       : 
TLFamily_RHOB      .         Bulk Density                  : 
TLFamily_RP        .         Resistivity - Deep            : 
TLFamily_RS        .         Resistivity - Shallow         : 
TLFamily_THOR      .         Thorium Concentration         : 
TLFamily_URAN      .         Uranium Concentration         : 
group              .         Registros Editados            : 
~Curve Information
#_______________________________________________________________________________
#
#LOGNAME           .UNIT     LOG_ID                        : DESCRIPTION
#_______________________________________________________________________________
DEPTH              .M                                      :  {F}
BS                 .in                                     :  {F}
CALI               .in                                     :  {F}
CGR                .gAPI                                   :  {F}
DT                 .us/ft                                  :  {F}
DTS                .us/ft                                  :  {F}
GR                 .gAPI                                   :  {F}
GR_EDITED          .gAPI                                   : Normalized by Techlog {F}
NPHI               .V/V                                    :  {F}
NPHI_EDITED        .m3/m3                                  : Normalized by Techlog {F}
POTA               .%                                      :  {F}
RHOB               .g/cc                                   :  {F}
RP                 .OHMM                                   :  {F}
RS                 .OHMM                                   :  {F}
THOR               .ppm                                    :  {F}
URAN               .ppm                                    :  {F}
~Ascii
# ...
459.3848   12.25      16.5629    -9999      157.6582   533.5571   43.8798    41.31503   0.5199     -9999      -9999      2.0482     2.2872     2.1815     -9999      -9999     
459.5372   12.25      16.2307    -9999      157.4585   531.2423   45.3523    42.42111   0.4991     -9999      -9999      2.0672     2.3818     2.1996     -9999      -9999     
459.6896   12.25      15.4961    -9999      156.0025   528.5423   49.2277    45.33213   0.4708     -9999      -9999      2.0863     2.5908     2.3835     -9999      -9999     
459.842    12.25      14.9477    -9999      154.1761   527.5126   52.242     47.59633   0.4556     -9999      -9999      2.0923     2.6701     2.5584     -9999      -9999     
459.9944   12.25      14.7239    -9999      152.7116   526.1413   52.2409    47.5955    0.4522     -9999      -9999      2.0862     2.5668     2.6103     -9999      -9999     
460.1468   12.25      14.655     -9999      151.7659   525.6921   50.4224    46.22953   0.448      -9999      -9999      2.0825     2.4413     2.5366     -9999      -9999     
460.2992   12.25      14.676     -9999      151.5427   530.6429   49.0253    45.1801    0.4441     -9999      -9999      2.0886     2.3693     2.4276     -9999      -9999     
460.4516   12.25      14.7897    -9999      152.0602   544.6181   49.0396    45.19084   0.4488     -9999      -9999      2.0955     2.3177     2.3303     -9999      -9999     
460.604    12.25      14.9042    -9999      152.9437   557.9417   49.9301    45.85974   0.4578     -9999      -9999      2.0922     2.2793     2.2576     -9999      -9999     
460.7564   12.25      14.8755    -9999      153.7383   562.5062   50.4908    46.28091   0.4582     -9999      -9999      2.0827     2.2678     2.2338     -9999      -9999     
460.9088   12.25      14.781     -9999      154.0344   563.1462   50.2628    46.10965   0.4457     -9999      -9999      2.0801     2.2775     2.2434     -9999      -9999     
461.0612   12.25      14.7558    -9999      153.5646   558.7292   49.8921    45.8312    0.4302     -9999      -9999      2.0867     2.2909     2.2625     -9999      -9999     
461.2136   12.25      14.7886    -9999      152.4523   551.9416   49.703     45.68915   0.4215     -9999      -9999      2.0929     2.2974     2.2791     -9999      -9999     
461.366    12.25      14.8486    -9999      151.5258   542.2106   49.3875    45.45216   0.4226     -9999      -9999      2.0941     2.2999     2.2884     -9999      -9999     
461.5184   12.25      14.9102    -9999      151.8605   530.7616   49.3576    45.4297    0.4328     -9999      -9999      2.0943     2.304      2.2932     -9999      -9999     
461.6708   12.25      14.9407    -9999      153.2556   521.2507   50.0242    45.93042   0.4404     -9999      -9999      2.0974     2.3139     2.3046     -9999      -9999     
461.8232   12.25      14.947     -9999      154.1413   517.5714   50.505     46.29158   0.4387     -9999      -9999      2.1041     2.3392     2.3304     -9999      -9999     
461.9756   12.25      15.0004    -9999      153.7391   518.3424   50.2189    46.07667   0.4407     -9999      -9999      2.114      2.3853     2.3759     -9999      -9999     
462.128    12.25      15.1457    -9999      152.8618   522.1638   49.8858    45.82646   0.4565     -9999      -9999      2.1213     2.4381     2.4282     -9999      -9999     
462.2804   12.25      15.3385    -9999      152.4339   526.8446   49.8569    45.80475   0.4771     -9999      -9999      2.1157     2.4655     2.4538     -9999      -9999     
462.4328   12.25      15.5532    -9999      152.5666   529.9504   49.8013    45.76299   0.4927     -9999      -9999      2.0962     2.4468     2.427      -9999      -9999     
462.5852   12.25      15.7439    -9999      152.8528   530.2709   50.0705    45.9652    0.5023     -9999      -9999      2.0757     2.4077     2.3686     -9999      -9999     
462.7376   12.25      15.7692    -9999      153.0376   527.386    51.1808    46.79921   0.5068     -9999      -9999      2.0668     2.398      2.3408     -9999      -9999     
462.89     12.25      15.6328    -9999      153.4776   523.9122   52.5162    47.8023    0.5091     -9999      -9999      2.067      2.426      2.3746     -9999      -9999     
463.0424   12.25      15.528     -9999      154.5166   522.149    52.7751    47.99677   0.5164     -9999      -9999      2.0665     2.4567     2.4424     -9999      -9999     
463.1948   12.25      15.4999    -9999      155.5929   522.4894   51.5879    47.105     0.5251     -9999      -9999      2.0612     2.4745     2.4977     -9999      -9999     
463.3472   12.25      15.5304    -9999      155.835    525.9616   50.3265    46.1575    0.5261     -9999      -9999      2.0534     2.4925     2.5237     -9999      -9999     
463.4996   12.25      15.6401    -9999      155.1986   531.4868   50.5099    46.29526   0.5161     -9999      -9999      2.045      2.5145     2.5222     -9999      -9999     
463.652    12.25      15.7816    -9999      154.3092   537.6975   51.6541    47.15472   0.4991     -9999      -9999      2.0375     2.5329     2.4864     -9999      -9999     
463.8044   12.25      15.8638    -9999      153.7469   542.5491   52.1864    47.55457   0.4843     -9999      -9999      2.0374     2.5428     2.4467     -9999      -9999     
463.9568   12.25      15.8844    -9999      153.9059   543.2264   51.9208    47.35506   0.4776     -9999      -9999      2.0535     2.5421     2.4409     -9999      -9999     
464.1092   12.25      15.9059    -9999      154.9232   538.8193   51.2897    46.881     0.4714     -9999      -9999      2.0885     2.541      2.469      -9999      -9999     
464.2616   12.25      15.9676    -9999      156.2951   529.905    50.5297    46.31013   0.4586     -9999      -9999      2.1316     2.5763     2.5394     -9999      -9999     
464.414    12.25      16.0472    -9999      157.1945   520.7195   49.7697    45.73925   0.4437     -9999      -9999      2.1615     2.6798     2.6551     -9999      -9999     
464.5664   12.25      16.1104    -9999      157.3836   515.0978   47.4568    44.00191   0.4377     -9999      -9999      2.1634     2.7858     2.7664     -9999      -9999     
464.7188   12.25      16.1964    -9999      157.0552   512.9843   45.9195    42.84716   0.4476     -9999      -9999      2.1429     2.7676     2.7534     -9999      -9999     
464.8712   12.25      16.324     -9999      156.4231   512.5712   46.2972    43.13087   0.4661     -9999      -9999      2.116      2.6169     2.5862     -9999      -9999     
465.0236   12.25      16.4376    -9999      156.0727   513.7449   48.2526    44.59968   0.4858     -9999      -9999      2.0934     2.4485     2.4066     -9999      -9999     
465.176    12.25      16.4742    -9999      156.5402   517.5898   50.7109    46.44624   0.5032     -9999      -9999      2.08       2.3449     2.3026     -9999      -9999     
465.3284   12.25      16.4927    -9999      157.5996   524.3673   52.3014    47.64095   0.5162     -9999      -9999      2.079      2.3034     2.2589     -9999      -9999     
465.4808   12.25      16.5487    -9999      158.5853   532.8989   51.8802    47.32456   0.5215     -9999      -9999      2.0872     2.2879     2.2406     -9999      -9999     
465.6332   12.25      16.6266    -9999      159.1148   542.84     50.1211    46.00321   0.5199     -9999      -9999      2.0956     2.2718     2.2281     -9999      -9999     
465.7856   12.25      16.6896    -9999      159.4265   553.6648   49.4822    45.5233    0.5153     -9999      -9999      2.0986     2.2566     2.2163     -9999      -9999     
465.938    12.25      16.7195    -9999      159.7788   562.2502   51.1299    46.76097   0.5119     -9999      -9999      2.0998     2.2582     2.2159     -9999      -9999     
466.0904   12.25      16.746     -9999      159.8915   565.2825   53.3073    48.39653   0.5061     -9999      -9999      2.1051     2.2751     2.233      -9999      -9999     
466.2428   12.25      16.776     -9999      159.4775   562.9301   53.574     48.59687   0.4958     -9999      -9999      2.1156     2.2867     2.2419     -9999      -9999     
