~Version
 VERS              .         3.0                           : CWLS LOG ASCII STANDARD - VERSION 3.0
 WRAP              .         NO                            : ONE LINE PER DEPTH STEP
 DLM               .         SPACE                         : DELIMITING CHARACTER(SPACE TAB OR COMMA)
~Well Information
#_______________________________________________________________________________
#
#PARAMETER_NAME    .UNIT     VALUE                         : DESCRIPTION
#_______________________________________________________________________________
STRT               .M        200                           : First reference value
STOP               .M        2131.9748                     : Last reference value
STEP               .M        0.1524                        : Step increment
NULL               .         -9999                         : Missing value
COMP               .         PEMEX                         : Company
WELL               .         YETIC-1                       : Well name
FLD                .         YETIC                         : Field
LOC                .         PLAT. PRIDE WISCONSIN         : Location
SRVC               .         TEMPLE                        : Service Company
CTRY               .         MX                            : Country
DATE               .         01-Julio-2005                 : Service Date
X                  .M        364558.478                    : X or East-West coordinate
Y                  .M        2032524.533                   : Y or North South coordinate
GDAT               .                                       : Geodetic Datum
HZCS               .                                       : Horizontal Co-ordinate System
ACTIVO             .         ACTIVO REGIONAL EXPLORACION MARINA: 
APD                .                                       : Above Perm Datum
API                .                                       : API Number
CLASS              .         01-01-01                      : 
CNTY               .         COATZACOALCOS                 : County
CRSTATUS           .         1                             : 
CURRENT_CL         .         1                             : 
COUNTRY            .         Mexico                        : Mexico
DEVIATION_         .                                       : 
DISTRICT           .         278                           : 
DMF                .                                       : Drill Measured From
EDF                .         30.000000                     : Elev-Drill Floor
EGL                .         -42.000000                    : Elev-Ground Level
EKB                .         30.300000                     : Elev-Kelly Bushing.
EPD                .                                       : Elevation
EREF               .         33                            : 
FIELD              .         90016                         : 
FORM_AT_TD         .         PLI                           : 
Fecha_de_Inicio    .         01/01/2001                    : 01/01/2008
GEOLOGICAL         .                                       : 
GEOLOGIC_P         .         CUENCA SALINA DEL ISTMO       : 
INSERTED_B         .                                       : 
LAST_UPDAT         .         05-07-10                      : 
LMF                .                                       : Log Measured From
LOC1               .                                       : Location 1
NODE_ID            .         2595768                       : 
OBJECTID           .         15377                         : 
OPERATOR           .         PEP                           : 
ORIGINALWELLNAME   .         Yetic-1                       : 
PDAT               .                                       : Perm Datum
PERIODO            .         TERCIARIO                     : 
PRIMARY_SO         .         PEP                           : 
PROY_INV           .         COATZACOALCOS                 : 
Provincia          .          SALINA DEL ISTMO             :  PILAR REFORMA-AKAL
Proyecto           .         UCHUKIL                       : CAMPECHE ORIENTE
RNGE               .                                       : Range
RT_ELEVATI         .         33                            : 
SECT               .                                       : Section
SHORT_NAME         .         Yetic-1                       : 
SITUACION          .         PRODUCTOR DE GAS Y CONDENSADO : 
SITUATION          .         TAP                           : 
STAT               .         VERACRUZ                      : State
WSTA               .         PRODUCTOR DE ACEITE Y GAS     : TAPONADO POR ACCIDENTE MECANICO DURANTE LA PERFORACION
TIPO_DE_HCS        .                                       :  
TOWN               .                                       : Township
TVD                .         2122                          : 
TD                 .M        0                             : 0
UPDATED_BY         .         LESPEJEL                      : 
UWI                .         3060000972                    : 0
WATER_REF          .         SL                            : 
WELL_NUMBE         .         1                             : 
WELL_TYPE          .         MARINO                        : 
Water_depth        .         42                            : 40
XCOORD             .         364558.3961                   : MapXCoordinate
YCOORD             .         2032524.8110                  : MapYCoordinate
group              .         02 Octli Cahua.Block 3 A      : 
~Parameter Information Block
#_______________________________________________________________________________
#
#PARAMETER_NAME    .UNIT     VALUE                         : DESCRIPTION
#_______________________________________________________________________________
SET                .         LQC                           : 
TLFamily_BS        .         Bit Size                      : 
TLFamily_CALI      .         Caliper                       : 
TLFamily_CGR       .         Gamma Ray Minus Uranium       : 
TLFamily_DT        .         Compressional Slowness        : 
TLFamily_DTS       .         Shear Slowness                : 
TLFamily_GR        .         Gamma Ray                     : 
TLFamily_GR_EDITED .         Gamma Ray                     : 
TLFamily_MD        .         Measured Depth                : 
TLFamily_NPHI      .         Neutron Porosity              : 
TLFamily_NPHI_EDITED .         Neutron Porosity              : 
TLFamily_POTA      .         Potassium Concentration       : 
TLFamily_RHOB      .         Bulk Density                  : 
TLFamily_RP        .         Resistivity - Deep            : 
TLFamily_RS        .         Resistivity - Shallow         : 
TLFamily_THOR      .         Thorium Concentration         : 
TLFamily_URAN      .         Uranium Concentration         : 
group              .         Registros Editados            : 
~Curve Information
#_______________________________________________________________________________
#
#LOGNAME           .UNIT     LOG_ID                        : DESCRIPTION
#_______________________________________________________________________________
DEPTH              .M                                      :  {F}
BS                 .in                                     :  {F}
CALI               .in                                     :  {F}
CGR                .gAPI                                   :  {F}
DT                 .us/ft                                  :  {F}
DTS                .us/ft                                  :  {F}
GR                 .gAPI                                   :  {F}
GR_EDITED          .gAPI                                   : Normalized by Techlog {F}
NPHI               .V/V                                    :  {F}
NPHI_EDITED        .m3/m3                                  : Normalized by Techlog {F}
POTA               .%                                      :  {F}
RHOB               .g/cc                                   :  {F}
RP                 .OHMM                                   :  {F}
RS                 .OHMM                                   :  {F}
THOR               .ppm                                    :  {F}
URAN               .ppm                                    :  {F}
~Ascii
# ...
2111.2484  8.5        8.8659     54.3285    99.4592    -9999      -9999      -9999      0.386      0.386      2.9842     2.4035     1.4016     1.5634     4.0291     1.794     
2111.4008  8.5        8.8618     56.1229    99.6971    -9999      -9999      -9999      0.4087     0.4087     3.1165     2.3551     1.532      1.8979     4.7502     1.4834    
2111.5532  8.5        8.7597     60.3952    99.8494    -9999      -9999      -9999      0.4186     0.4186     3.2567     2.3281     1.4577     1.8355     5.8383     1.1129    
2111.7056  8.5        8.6722     66.0919    99.7966    -9999      -9999      -9999      0.4144     0.4144     3.3257     2.3269     1.2212     1.3588     6.6474     0.875     
2111.858   8.5        8.6817     69.8867    99.7125    -9999      -9999      -9999      0.4077     0.4077     3.3003     2.3376     1.0557     1.0684     7.0397     0.8032    
2112.0104  8.5        8.7677     70.9138    99.5174    -9999      -9999      -9999      0.41       0.41       3.2157     2.3428     1.0165     1.0433     7.2161     0.8456    
2112.1628  8.5        8.8864     70.3932    99.2876    -9999      -9999      -9999      0.426      0.426      3.1204     2.3206     1.0257     1.0979     7.2664     0.9724    
2112.3152  8.5        9.0588     69.2162    99.2794    -9999      -9999      -9999      0.4572     0.4572     3.0141     2.2527     1.0438     1.1445     7.1326     1.0982    
2112.4676  8.5        9.3516     67.2892    99.4396    -9999      -9999      -9999      0.4941     0.4941     2.9242     2.1556     1.055      1.167      7.0005     1.1224    
2112.62    8.5        9.8405     65.6203    99.5626    -9999      -9999      -9999      0.5152     0.5152     2.8522     2.0957     1.0147     1.1138     7.0345     1.0369    
2112.7724  8.5        10.4247    64.6978    99.6016    -9999      -9999      -9999      0.5051     0.5051     2.669      2.119      0.9122     0.9624     7.0344     0.9381    
2112.9248  8.5        10.6202    62.0617    99.6064    -9999      -9999      -9999      0.4766     0.4766     2.2624     2.1698     0.8392     0.8325     6.5823     1.054     
2113.0772  8.5        10.2087    54.7792    99.6064    -9999      -9999      -9999      0.4792     0.4792     1.8099     2.1564     0.9533     0.9162     5.6647     1.3586    
2113.2296  8.5        10.066     45.3187    99.6064    -9999      -9999      -9999      0.5285     0.5285     1.6203     2.0806     1.3401     1.3127     4.986      1.5879    
2113.382   8.5        10.7165    40.3272    99.6064    -9999      -9999      -9999      0.5758     0.5758     1.6181     2.0123     1.7869     1.8632     4.7837     1.7701    
2113.5344  8.5        11.8142    39.5269    99.6064    -9999      -9999      -9999      0.5948     0.5948     1.6975     1.9892     1.9791     2.0273     4.867      1.9186    
2113.6868  8.5        12.7741    40.9299    99.6064    -9999      -9999      -9999      0.6013     0.6012999999999999 1.8037     1.9822     1.8895     1.7842     5.0906     1.985     
2113.8392  8.5        13.2642    43.1758    99.6064    -9999      -9999      -9999      0.6084     0.6084000000000001 1.9004     1.9533     1.6607     1.533      5.3334     1.8934    
2113.9916  8.5        13.3395    45.3681    99.6064    -9999      -9999      -9999      0.617      0.617      1.9635     1.9117     1.4046     1.3139     5.4662     1.7676    
2114.144   8.5        13.2642    46.7102    99.6064    -9999      -9999      -9999      0.6255     0.6254999999999999 1.9792     1.8933     1.1927     1.1058     5.4154     1.7443    
2114.2964  8.5        13.305     46.7478    99.6064    -9999      -9999      -9999      0.6389     0.6389     1.9657     1.9063     1.0444     0.9617     5.3015     1.7864    
2114.4488  8.5        13.3958    46.1953    99.6064    -9999      -9999      -9999      0.6474     0.6474     1.945      1.9269     0.9487     0.8889     5.2882     1.7921    
2114.6012  8.5        13.4286    45.8745    99.6064    -9999      -9999      -9999      0.6363     0.6363     1.9452     1.9482     0.9051     0.8569     5.3484     1.7156    
2114.7536  8.5        13.4278    46.0653    99.6064    -9999      -9999      -9999      0.6138     0.6138     1.9921     1.9906     0.9118     0.8437     5.423      1.5093    
2114.906   8.5        13.4183    46.9944    99.6064    -9999      -9999      -9999      0.5944     0.5944     2.0635     2.0568     0.9394     0.8409     5.557      1.1747    
2115.0584  8.5        13.4222    48.4572    99.6064    -9999      -9999      -9999      0.5722     0.5722     2.1492     2.1136     0.9563     0.8373     5.6955     0.7944    
2115.2108  8.5        13.4244    50.1204    99.6064    -9999      -9999      -9999      0.532      0.532      2.271      2.1351     0.9597     0.8397     5.7561     0.4194    
2115.3632  8.5        13.3555    52.0522    99.6064    -9999      -9999      -9999      0.4702     0.4702     2.4249     2.1518     0.9673     0.8633     5.7881     0.2096    
2115.5156  8.5        13.0895    54.3736    99.6064    -9999      -9999      -9999      0.401      0.401      2.5382     2.2197     1.0066     0.902      6.0253     0.1546    
2115.668   8.5        12.2257    56.7428    99.6064    -9999      -9999      -9999      0.3479     0.3479     2.5311     2.3584     1.1512     0.976      6.1241     0.1451    
2115.8204  8.5        10.8025    56.8544    99.6064    -9999      -9999      -9999      0.3278     0.3278     2.3837     2.5118     1.7433     1.2948     5.6032     0.1354    
2115.9728  8.5        9.7507     53.0149    99.6064    -9999      -9999      -9999      0.3316     0.3316     2.2514     2.6022     3.151      2.7898     5.0671     0.1294    
2116.1252  8.5        9.4085     49.4265    99.6064    -9999      -9999      -9999      0.3443     0.3443     2.2155     2.6211     4.4564     5.5726     4.9281     0.1285    
2116.2776  8.5        9.4415     48.4326    99.6064    -9999      -9999      -9999      0.3525     0.3525     2.2118     2.6034     4.5347     6.2668     4.9283     0.1276    
2116.43    8.5        9.4603     48.3125    99.6064    -9999      -9999      -9999      0.3521     0.3521     2.2138     2.5804     3.9107     4.9654     4.9297     0.1278    
2116.5824  8.5        9.4556     48.3454    99.6064    -9999      -9999      -9999      0.3477     0.3477     2.216      2.5722     3.3321     3.8302     4.9312     0.1281    
2116.7348  8.5        9.5137     48.3819    99.6064    -9999      -9999      -9999      0.3437     0.3437     2.2185     2.5859     3.0322     2.903      4.9328     0.129     
2116.8872  8.5        9.5526     48.4225    99.6064    -9999      -9999      -9999      0.3414     0.3414     2.2212     2.6166     3.6708     2.7168     4.9347     0.1291    
2117.0396  8.5        9.5816     48.4673    99.6064    -9999      -9999      -9999      0.3416     0.3416     2.2243     2.6534     5.5942     3.5689     4.9367     0.128     
2117.192   8.5        9.5578     48.5172    99.6064    -9999      -9999      -9999      0.3451     0.3451     2.2277     2.6871     7.3269     4.8868     4.939      0.1274    
2117.3444  8.5        9.4196     48.572     99.6064    -9999      -9999      -9999      0.3494     0.3494     2.2314     2.7056     7.5479     5.4211     4.9414     0.1275    
2117.4968  8.5        9.3088     48.6333    99.6064    -9999      -9999      -9999      0.3504     0.3504     2.2355     2.6936     7.2888     5.3095     4.9442     0.128     
2117.6492  8.5        9.3166     48.7005    99.6064    -9999      -9999      -9999      0.3489     0.3489     2.2401     2.6525     7.5939     5.4831     4.9472     0.1279    
2117.8016  8.5        9.3572     48.7757    99.6064    -9999      -9999      -9999      0.3485     0.3485     2.2452     2.5899     7.7594     5.7712     4.9506     0.1279    
2117.954   8.5        9.303      48.8581    99.6064    -9999      -9999      -9999      0.3488     0.3488     2.2508     2.4951     7.2825     5.5735     4.9543     0.1282    
2118.1064  8.5        9.2638     48.9502    99.6064    -9999      -9999      -9999      0.3473     0.3473     2.2573     2.3653     6.7479     4.9053     4.9584     0.1281    
