~Version
 VERS              .         3.0                           : CWLS LOG ASCII STANDARD - VERSION 3.0
 WRAP              .         NO                            : ONE LINE PER DEPTH STEP
 DLM               .         SPACE                         : DELIMITING CHARACTER(SPACE TAB OR COMMA)
~Well Information
#_______________________________________________________________________________
#
#PARAMETER_NAME    .UNIT     VALUE                         : DESCRIPTION
#_______________________________________________________________________________
STRT               .M        200                           : First reference value
STOP               .M        2131.9748                     : Last reference value
STEP               .M        0.1524                        : Step increment
NULL               .         -9999                         : Missing value
COMP               .         PEMEX                         : Company
WELL               .         YETIC-1                       : Well name
FLD                .         YETIC                         : Field
LOC                .         PLAT. PRIDE WISCONSIN         : Location
SRVC               .         TEMPLE                        : Service Company
CTRY               .         MX                            : Country
DATE               .         01-Julio-2005                 : Service Date
X                  .M        364558.478                    : X or East-West coordinate
Y                  .M        2032524.533                   : Y or North South coordinate
GDAT               .                                       : Geodetic Datum
HZCS               .                                       : Horizontal Co-ordinate System
ACTIVO             .         ACTIVO REGIONAL EXPLORACION MARINA: 
APD                .                                       : Above Perm Datum
API                .                                       : API Number
CLASS              .         01-01-01                      : 
CNTY               .         COATZACOALCOS                 : County
CRSTATUS           .         1                             : 
CURRENT_CL         .         1                             : 
COUNTRY            .         Mexico                        : Mexico
DEVIATION_         .                                       : 
DISTRICT           .         278                           : 
DMF                .                                       : Drill Measured From
EDF                .         30.000000                     : Elev-Drill Floor
EGL                .         -42.000000                    : Elev-Ground Level
EKB                .         30.300000                     : Elev-Kelly Bushing.
EPD                .                                       : Elevation
EREF               .         33                            : 
FIELD              .         90016                         : 
FORM_AT_TD         .         PLI                           : 
Fecha_de_Inicio    .         01/01/2001                    : 01/01/2008
GEOLOGICAL         .                                       : 
GEOLOGIC_P         .         CUENCA SALINA DEL ISTMO       : 
INSERTED_B         .                                       : 
LAST_UPDAT         .         05-07-10                      : 
LMF                .                                       : Log Measured From
LOC1               .                                       : Location 1
NODE_ID            .         2595768                       : 
OBJECTID           .         15377                         : 
OPERATOR           .         PEP                           : 
ORIGINALWELLNAME   .         Yetic-1                       : 
PDAT               .                                       : Perm Datum
PERIODO            .         TERCIARIO                     : 
PRIMARY_SO         .         PEP                           : 
PROY_INV           .         COATZACOALCOS                 : 
Provincia          .          SALINA DEL ISTMO             :  PILAR REFORMA-AKAL
Proyecto           .         UCHUKIL                       : CAMPECHE ORIENTE
RNGE               .                                       : Range
RT_ELEVATI         .         33                            : 
SECT               .                                       : Section
SHORT_NAME         .         Yetic-1                       : 
SITUACION          .         PRODUCTOR DE GAS Y CONDENSADO : 
SITUATION          .         TAP                           : 
STAT               .         VERACRUZ                      : State
WSTA               .         PRODUCTOR DE ACEITE Y GAS     : TAPONADO POR ACCIDENTE MECANICO DURANTE LA PERFORACION
TIPO_DE_HCS        .                                       :  
TOWN               .                                       : Township
TVD                .         2122                          : 
TD                 .M        0                             : 0
UPDATED_BY         .         LESPEJEL                      : 
UWI                .         3060000972                    : 0
WATER_REF          .         SL                            : 
WELL_NUMBE         .         1                             : 
WELL_TYPE          .         MARINO                        : 
Water_depth        .         42                            : 40
XCOORD             .         364558.3961                   : MapXCoordinate
YCOORD             .         2032524.8110                  : MapYCoordinate
group              .         02 Octli Cahua.Block 3 A      : 
~Parameter Information Block
#_______________________________________________________________________________
#
#PARAMETER_NAME    .UNIT     VALUE                         : DESCRIPTION
#_______________________________________________________________________________
SET                .         LQC                           : 
TLFamily_BS        .         Bit Size                      : 
TLFamily_CALI      .         Caliper                       : 
TLFamily_CGR       .         Gamma Ray Minus Uranium       : 
TLFamily_DT        .         Compressional Slowness        : 
TLFamily_DTS       .         Shear Slowness                : 
TLFamily_GR        .         Gamma Ray                     : 
TLFamily_GR_EDITED .         Gamma Ray                     : 
TLFamily_MD        .         Measured Depth                : 
TLFamily_NPHI      .         Neutron Porosity              : 
TLFamily_NPHI_EDITED .         Neutron Porosity              : 
TLFamily_POTA      .         Potassium Concentration       : 
TLFamily_RHOB      .         Bulk Density                  : 
TLFamily_RP        .         Resistivity - Deep            : 
TLFamily_RS        .         Resistivity - Shallow         : 
TLFamily_THOR      .         Thorium Concentration         : 
TLFamily_URAN      .         Uranium Concentration         : 
group              .         Registros Editados            : 
~Curve Information
#_______________________________________________________________________________
#
#LOGNAME           .UNIT     LOG_ID                        : DESCRIPTION
#_______________________________________________________________________________
DEPTH              .M                                      :  {F}
BS                 .in                                     :  {F}
CALI               .in                                     :  {F}
CGR                .gAPI                                   :  {F}
DT                 .us/ft                                  :  {F}
DTS                .us/ft                                  :  {F}
GR                 .gAPI                                   :  {F}
GR_EDITED          .gAPI                                   : Normalized by Techlog {F}
NPHI               .V/V                                    :  {F}
NPHI_EDITED        .m3/m3                                  : Normalized by Techlog {F}
POTA               .%                                      :  {F}
RHOB               .g/cc                                   :  {F}
RP                 .OHMM                                   :  {F}
RS                 .OHMM                                   :  {F}
THOR               .ppm                                    :  {F}
URAN               .ppm                                    :  {F}
~Ascii
# ...
1473.302   8.5        9.2048     63.6721    127.8686   321.1106   96.9935    81.21157   0.4899     0.4539083  2.6427     2.1524     0.7693     0.783      7.8423     1.9795    
1473.4544  8.5        9.1718     63.9488    129.3237   329.9696   97.5024    81.59383   0.4929     0.4582826  2.6778     2.1471     0.7516     0.7722     7.8186     1.9689    
1473.6068  8.5        9.1255     64.4164    129.0472   333.6224   98.0602    82.01283   0.4935     0.4591574  2.7099     2.1512     0.7177     0.733      7.8381     1.9283    
1473.7592  8.5        9.1057     64.8181    127.5139   334.9734   98.1969    82.11551   0.4976     0.4651356  2.7275     2.1589     0.685      0.6851     7.9365     1.8808    
1473.9116  8.5        9.1098     65.288     125.7998   335.1619   97.8649    81.86612   0.5048     0.4756339  2.7372     2.1629     0.6666     0.6581     7.9528     1.8889    
1474.064   8.5        9.1412     65.83      124.8107   331.6055   97.428     81.53795   0.5096     0.4826328  2.7517     2.1606     0.6592     0.65       7.7377     1.9714    
1474.2164  8.5        9.1606     66.1977    124.5961   327.2436   97.0643    81.26476   0.5101     0.4833618  2.7475     2.1557     0.6567     0.6473     7.3293     2.1265    
1474.3688  8.5        9.137      65.9988    124.4974   324.7834   96.9011    81.14217   0.5045     0.4751964  2.7187     2.1549     0.6591     0.6508     6.9621     2.2814    
1474.5212  8.5        9.1162     64.9898    124.2195   324.6252   96.8409    81.09694   0.494      0.4598864  2.7018     2.1613     0.6656     0.66       6.8246     2.3267    
1474.6736  8.5        9.1328     63.4414    123.9732   325.7722   96.9579    81.18483   0.4906     0.4549289  2.7096     2.1694     0.6717     0.6688     6.8522     2.2801    
1474.826   8.5        9.1269     62.2559    123.8639   326.6314   97.2596    81.41145   0.495      0.4613446  2.7355     2.1733     0.6756     0.6724     6.87       2.2233    
1474.9784  8.5        9.1302     61.9751    123.9051   325.2604   97.8545    81.85831   0.4989     0.4670311  2.7696     2.1717     0.6805     0.6743     6.8006     2.2113    
1475.1308  8.5        9.1671     62.2625    124.0065   320.1787   98.9873    82.70921   0.5009     0.4699473  2.8056     2.1661     0.6883     0.6807     6.6728     2.2375    
1475.2832  8.5        9.2263     62.5865    123.693    310.5151   99.8997    83.39456   0.5022     0.4718429  2.8159     2.1569     0.6932     0.6854     6.6685     2.2312    
1475.4356  8.5        9.2995     62.7299    122.6286   297.6043   100.0468   83.50507   0.497      0.4642608  2.8144     2.1468     0.691      0.6807     6.8017     2.1536    
1475.588   8.5        9.3571     62.8337    121.3334   284.5354   99.1655    82.84307   0.482      0.4423893  2.8166     2.1408     0.6875     0.6694     6.9539     2.0406    
1475.7404  8.5        9.2968     63.1368    120.7321   274.1791   98.2886    82.18439   0.4615     0.4124983  2.8053     2.1418     0.6954     0.6661     7.0785     1.9612    
1475.8928  8.5        9.1084     63.6345    121.2759   268.4503   97.1401    81.32169   0.4413     0.3830447  2.7594     2.1501     0.7265     0.6873     7.2176     1.9412    
1476.0452  8.5        8.9488     64.0447    122.8257   267.0066   95.427     80.03489   0.4252     0.3595693  2.6846     2.165      0.7922     0.7403     7.2615     2.0058    
1476.1976  8.5        8.9106     64.1067    124.738    266.9939   93.5115    78.59605   0.424      0.3578196  2.5947     2.1826     0.9086     0.8502     7.1205     2.0966    
1476.35    8.5        8.9767     63.5708    125.9659   264.2982   92.804     78.06461   0.4408     0.3823157  2.5126     2.1949     1.0436     1.0176     6.9746     2.1839    
1476.5024  8.5        9.1154     62.2498    125.9404   269.0295   93.8502    78.85046   0.4578     0.4071033  2.4775     2.1966     1.0866     1.113      7.002      2.1885    
1476.6548  8.5        9.2543     60.5817    125.179    279.4881   95.407     80.01987   0.4671     0.4206636  2.5025     2.1923     0.9947     1.0119     7.1895     2.0783    
1476.8072  8.5        9.3638     59.5671    124.519    293.7689   96.424     80.78379   0.474      0.4307245  2.5557     2.19       0.8645     0.8394     7.4651     1.9784    
1476.9596  8.5        9.5087     59.8679    124.3331   308.6642   96.9207    81.15688   0.4794     0.4385982  2.5794     2.193      0.7833     0.74       7.7154     1.9288    
1477.112   8.5        9.6754     61.2196    124.5301   320.0253   97.2314    81.39027   0.4813     0.4413686  2.5932     2.1984     0.7524     0.7064     7.8761     1.8627    
1477.2644  8.5        9.7925     62.0639    124.6615   322.3932   97.4995    81.59164   0.4819     0.4422435  2.6441     2.2033     0.7417     0.7022     7.9776     1.7322    
1477.4168  8.5        9.9186     63.2532    124.2194   314.5638   97.3742    81.49753   0.4824     0.4429725  2.7368     2.2066     0.7287     0.7021     8.1303     1.5907    
1477.5692  8.5        9.932      64.0231    123.2026   302.7087   96.3026    80.6926    0.4811     0.441077   2.793      2.2079     0.7073     0.6906     8.2331     1.5094    
1477.7216  8.5        9.7753     65.1187    122.0589   290.5946   94.964     79.6871    0.4793     0.4384524  2.784      2.2076     0.6868     0.6772     8.1642     1.5317    
1477.874   8.5        9.6179     66.9424    121.1361   279.981    93.7159    78.74959   0.4804     0.4400563  2.7476     2.205      0.6757     0.674      7.8814     1.5686    
1478.0264  8.5        9.5678     68.0586    120.6751   270.4049   93.0394    78.24143   0.4818     0.4420977  2.7334     2.1969     0.6724     0.6785     7.458      1.5648    
1478.1788  8.5        9.599      67.6822    120.8493   260.682    91.7769    77.29311   0.474      0.4307245  2.7282     2.1815     0.6692     0.6837     6.9954     1.6045    
1478.3312  8.5        9.6057     66.2015    121.3085   251.1475   90.172     76.08757   0.4569     0.405791   2.7271     2.1615     0.6564     0.6788     6.5576     1.6806    
1478.4836  8.5        9.4363     64.5088    121.4773   244.555    88.5224    74.84848   0.4381     0.3783788  2.7493     2.1462     0.6383     0.6615     6.2629     1.6868    
1478.636   8.5        9.091      62.8243    121.4835   243.4994   86.8786    73.61372   0.4219     0.3547576  2.7972     2.1458     0.6333     0.6584     6.0605     1.6093    
1478.7884  8.5        8.7601     61.2605    121.9956   248.7684   85.5292    72.60012   0.4121     0.3404683  2.7933     2.1618     0.6433     0.694      5.8506     1.4799    
1478.9408  8.5        8.5873     60.5445    123.3893   256.8637   84.7733    72.03233   0.4106     0.3382811  2.7625     2.1825     0.6439     0.7377     5.6676     1.3186    
1479.0932  8.5        8.534      60.5061    125.654    260.1767   85.1869    72.343     0.414      0.3432387  2.7578     2.1902     0.6132     0.7375     5.5239     1.1669    
1479.2456  8.5        8.5102     59.7044    128.7552   263.045    85.471     72.5564    0.4172     0.3479046  2.7695     2.177      0.5568     0.6881     5.3848     1.0521    
1479.398   8.5        8.4946     58.6334    132.4934   264.9708   84.3924    71.74622   0.4187     0.3500917  2.7508     2.1509     0.4951     0.6182     5.2842     0.987     
1479.5504  8.5        8.4932     58.0513    136.2245   266.4401   81.7503    69.76159   0.4198     0.3516956  2.6791     2.1256     0.437      0.5474     5.3083     0.9273    
1479.7028  8.5        8.4882     57.7353    139.5058   267.8788   79.1602    67.81602   0.4232     0.3566532  2.6154     2.1089     0.3789     0.4683     5.2813     0.8801    
1479.8552  8.5        8.4738     57.1217    142.5988   268.9203   77.5825    66.63093   0.4304     0.3671515  2.5797     2.1008     0.3254     0.3894     5.1072     0.8932    
1480.0076  8.5        8.4516     56.1908    145.6341   268.26     76.8371    66.07102   0.4381     0.3783788  2.559      2.0959     0.2949     0.3461     4.9467     0.9356    
1480.16    8.5        8.4353     55.1838    148.0483   265.9124   75.9192    65.38154   0.441      0.3826073  2.538      2.0867     0.2935     0.3529     4.8613     0.9815    
