~Version
 VERS              .         3.0                           : CWLS LOG ASCII STANDARD - VERSION 3.0
 WRAP              .         NO                            : ONE LINE PER DEPTH STEP
 DLM               .         SPACE                         : DELIMITING CHARACTER(SPACE TAB OR COMMA)
~Well Information
#_______________________________________________________________________________
#
#PARAMETER_NAME    .UNIT     VALUE                         : DESCRIPTION
#_______________________________________________________________________________
STRT               .M        200                           : First reference value
STOP               .M        2131.9748                     : Last reference value
STEP               .M        0.1524                        : Step increment
NULL               .         -9999                         : Missing value
COMP               .         PEMEX                         : Company
WELL               .         YETIC-1                       : Well name
FLD                .         YETIC                         : Field
LOC                .         PLAT. PRIDE WISCONSIN         : Location
SRVC               .         TEMPLE                        : Service Company
CTRY               .         MX                            : Country
DATE               .         01-Julio-2005                 : Service Date
X                  .M        364558.478                    : X or East-West coordinate
Y                  .M        2032524.533                   : Y or North South coordinate
GDAT               .                                       : Geodetic Datum
HZCS               .                                       : Horizontal Co-ordinate System
ACTIVO             .         ACTIVO REGIONAL EXPLORACION MARINA: 
APD                .                                       : Above Perm Datum
API                .                                       : API Number
CLASS              .         01-01-01                      : 
CNTY               .         COATZACOALCOS                 : County
CRSTATUS           .         1                             : 
CURRENT_CL         .         1                             : 
COUNTRY            .         Mexico                        : Mexico
DEVIATION_         .                                       : 
DISTRICT           .         278                           : 
DMF                .                                       : Drill Measured From
EDF                .         30.000000                     : Elev-Drill Floor
EGL                .         -42.000000                    : Elev-Ground Level
EKB                .         30.300000                     : Elev-Kelly Bushing.
EPD                .                                       : Elevation
EREF               .         33                            : 
FIELD              .         90016                         : 
FORM_AT_TD         .         PLI                           : 
Fecha_de_Inicio    .         01/01/2001                    : 01/01/2008
GEOLOGICAL         .                                       : 
GEOLOGIC_P         .         CUENCA SALINA DEL ISTMO       : 
INSERTED_B         .                                       : 
LAST_UPDAT         .         05-07-10                      : 
LMF                .                                       : Log Measured From
LOC1               .                                       : Location 1
NODE_ID            .         2595768                       : 
OBJECTID           .         15377                         : 
OPERATOR           .         PEP                           : 
ORIGINALWELLNAME   .         Yetic-1                       : 
PDAT               .                                       : Perm Datum
PERIODO            .         TERCIARIO                     : 
PRIMARY_SO         .         PEP                           : 
PROY_INV           .         COATZACOALCOS                 : 
Provincia          .          SALINA DEL ISTMO             :  PILAR REFORMA-AKAL
Proyecto           .         UCHUKIL                       : CAMPECHE ORIENTE
RNGE               .                                       : Range
RT_ELEVATI         .         33                            : 
SECT               .                                       : Section
SHORT_NAME         .         Yetic-1                       : 
SITUACION          .         PRODUCTOR DE GAS Y CONDENSADO : 
SITUATION          .         TAP                           : 
STAT               .         VERACRUZ                      : State
WSTA               .         PRODUCTOR DE ACEITE Y GAS     : TAPONADO POR ACCIDENTE MECANICO DURANTE LA PERFORACION
TIPO_DE_HCS        .                                       :  
TOWN               .                                       : Township
TVD                .         2122                          : 
TD                 .M        0                             : 0
UPDATED_BY         .         LESPEJEL                      : 
UWI                .         3060000972                    : 0
WATER_REF          .         SL                            : 
WELL_NUMBE         .         1                             : 
WELL_TYPE          .         MARINO                        : 
Water_depth        .         42                            : 40
XCOORD             .         364558.3961                   : MapXCoordinate
YCOORD             .         2032524.8110                  : MapYCoordinate
group              .         02 Octli Cahua.Block 3 A      : 
~Parameter Information Block
#_______________________________________________________________________________
#
#PARAMETER_NAME    .UNIT     VALUE                         : DESCRIPTION
#_______________________________________________________________________________
SET                .         LQC                           : 
TLFamily_BS        .         Bit Size                      : 
TLFamily_CALI      .         Caliper                       : 
TLFamily_CGR       .         Gamma Ray Minus Uranium       : 
TLFamily_DT        .         Compressional Slowness        : 
TLFamily_DTS       .         Shear Slowness                : 
TLFamily_GR        .         Gamma Ray                     : 
TLFamily_GR_EDITED .         Gamma Ray                     : 
TLFamily_MD        .         Measured Depth                : 
TLFamily_NPHI      .         Neutron Porosity              : 
TLFamily_NPHI_EDITED .         Neutron Porosity              : 
TLFamily_POTA      .         Potassium Concentration       : 
TLFamily_RHOB      .         Bulk Density                  : 
TLFamily_RP        .         Resistivity - Deep            : 
TLFamily_RS        .         Resistivity - Shallow         : 
TLFamily_THOR      .         Thorium Concentration         : 
TLFamily_URAN      .         Uranium Concentration         : 
group              .         Registros Editados            : 
~Curve Information
#_______________________________________________________________________________
#
#LOGNAME           .UNIT     LOG_ID                        : DESCRIPTION
#_______________________________________________________________________________
DEPTH              .M                                      :  {F}
BS                 .in                                     :  {F}
CALI               .in                                     :  {F}
CGR                .gAPI                                   :  {F}
DT                 .us/ft                                  :  {F}
DTS                .us/ft                                  :  {F}
GR                 .gAPI                                   :  {F}
GR_EDITED          .gAPI                                   : Normalized by Techlog {F}
NPHI               .V/V                                    :  {F}
NPHI_EDITED        .m3/m3                                  : Normalized by Techlog {F}
POTA               .%                                      :  {F}
RHOB               .g/cc                                   :  {F}
RP                 .OHMM                                   :  {F}
RS                 .OHMM                                   :  {F}
THOR               .ppm                                    :  {F}
URAN               .ppm                                    :  {F}
~Ascii
# ...
968.7056   8.5        9.0356     67.6928    131.506    363.7237   95.008     79.72015   0.4558     0.4041871  2.8164     2.1671     1.3262     1.2711     8.9143     0.7853    
968.8579999999999 8.5        9.0065     65.5957    131.1098   362.0903   93.6649    78.71128   0.4538     0.4012709  2.8126     2.1641     1.3225     1.2744     9.1991     0.7196    
969.0104   8.5        8.9569     64.5416    130.4696   363.2094   92.2006    77.61137   0.4514     0.3977715  2.79       2.1621     1.3188     1.2694     9.1513     0.7891    
969.1627999999999 8.5        8.8914     64.2716    130.2067   367.0454   91.9606    77.43109   0.4511     0.3973341  2.7191     2.1621     1.3158     1.262      8.7948     1.0402    
969.3152   8.5        8.8484     64.6283    130.5217   371.5059   93.3929    78.50697   0.4522     0.398938   2.632      2.1636     1.3093     1.2557     8.3795     1.3298    
969.4675999999999 8.5        8.8353     65.5374    130.804    372.9935   95.344     79.97255   0.4557     0.4040413  2.5876     2.1642     1.2984     1.2442     8.1154     1.5       
969.62     8.5        8.8278     66.6879    130.7153   371.8589   96.0133    80.47529   0.4603     0.4107486  2.5938     2.164      1.2875     1.2296     7.9321     1.5751    
969.7723999999999 8.5        8.8142     67.2777    130.7537   371.3664   94.7937    79.55918   0.4619     0.4130815  2.6117     2.1651     1.2828     1.2241     7.8597     1.6191    
969.9248   8.5        8.8029     67.485     131.3198   372.6732   93.2126    78.37154   0.4611     0.4119151  2.6174     2.167      1.2867     1.2286     8.0344     1.5899    
970.0771999999999 8.5        8.8049     65.7147    132.1329   375.6122   92.6587    77.95547   0.4618     0.4129357  2.624      2.1663     1.2958     1.2368     8.3402     1.4814    
970.2296   8.5        8.8252     63.985     132.8553   376.805    93.3688    78.48886   0.4647     0.4171642  2.6438     2.1633     1.3058     1.2471     8.6041     1.3794    
970.3819999999999 8.5        8.8515     63.2314    133.4612   376.1078   93.9615    78.93407   0.4652     0.4178933  2.642      2.162      1.3133     1.2577     8.6762     1.4535    
970.5344   8.5        8.8754     62.9355    133.8575   375.4157   93.868     78.86383   0.4626     0.4141022  2.5867     2.1633     1.3171     1.2609     8.3964     1.6956    
970.6867999999999 8.5        8.8972     62.8227    133.8174   374.3749   93.4716    78.56609   0.4614     0.4123525  2.5307     2.1641     1.3153     1.2517     8.1008     1.902     
970.8392   8.5        8.9259     62.9816    133.3794   370.3924   93.5105    78.59531   0.4612     0.4120609  2.4914     2.1626     1.2966     1.2405     8.0388     1.9975    
970.9915999999999 8.5        8.9811     63.523     132.9728   365.4249   94.2291    79.13509   0.461      0.4117692  2.4506     2.1594     1.268      1.2356     8.1295     2.0533    
971.144    8.5        9.0511     63.8362    132.9696   363.5662   95.3661    79.98914   0.4616     0.4126441  2.4112     2.1566     1.2589     1.2238     8.2514     2.0973    
971.2963999999999 8.5        9.0856     63.8529    133.2328   365.5732   95.9971    80.46312   0.4603     0.4107486  2.3769     2.1551     1.2664     1.2059     8.4318     2.1207    
971.4488   8.5        9.0861     63.6185    133.4169   365.9735   95.9046    80.39364   0.4564     0.405062   2.3513     2.154      1.2681     1.2025     8.6945     2.113     
971.6011999999999 8.5        9.1181     63.167     133.4461   367.291    94.9539    79.67952   0.4511     0.3973341  2.3385     2.1525     1.2657     1.2071     8.8355     2.1254    
971.7536   8.5        9.1691     62.9471    133.4156   370.0931   93.883     78.87511   0.4456     0.3893145  2.3349     2.1517     1.2662     1.2077     8.8525     2.1484    
971.9059999999999 8.5        9.1887     63.3494    133.4149   372.1311   93.1453    78.32098   0.4456     0.3893145  2.3193     2.1522     1.2699     1.2104     8.8435     2.1909    
972.0584   8.5        9.2003     64.6502    133.5004   372.1607   93.3315    78.46085   0.4524     0.3992296  2.2779     2.1525     1.2773     1.2191     8.8798     2.2682    
972.2107999999999 8.5        9.2474     66.2898    133.6887   371.1936   94.8966    79.63647   0.4597     0.4098737  2.2507     2.1516     1.278      1.2235     8.9242     2.3251    
972.3632   8.5        9.3299     67.1406    134.0129   370.8351   96.9559    81.18333   0.4628     0.4143938  2.277      2.1494     1.2604     1.207      9.0397     2.2541    
972.5155999999999 8.5        9.3992     66.8301    134.4541   371.9364   98.372     82.24704   0.464      0.4161435  2.3415     2.1462     1.2359     1.1784     9.3036     2.0607    
972.668    8.5        9.4237     65.6854    134.8312   374.4427   98.1354    82.06931   0.4668     0.4202262  2.3994     2.1443     1.2293     1.1678     9.5112     1.8837    
972.8203999999999 8.5        9.4363     64.2374    134.9395   373.868    96.6849    80.97977   0.4693     0.4238715  2.4323     2.1462     1.2455     1.1815     9.4429     1.8245    
972.9728   8.5        9.4848     62.9331    134.8204   370.7588   95.4883    80.08093   0.4688     0.4231424  2.4532     2.1503     1.2672     1.2037     9.1085     1.8781    
973.1251999999999 8.5        9.5641     61.9315    134.6948   369.391    95.3438    79.9724    0.4648     0.41731    2.4488     2.153      1.2782     1.2179     8.7097     2.0302    
973.2776   8.5        9.629      61.5412    134.6507   369.4088   95.6313    80.18835   0.4595     0.4095821  2.4327     2.1535     1.2743     1.2153     8.3627     2.1989    
973.4299999999999 8.5        9.643      62.2661    134.6489   370.4933   95.0062    79.7188    0.4565     0.4052078  2.4198     2.153      1.2616     1.2025     8.0812     2.3259    
973.5824   8.5        9.6156     63.9105    134.7335   372.1739   93.9874    78.95352   0.4572     0.4062285  2.4099     2.151      1.2519     1.1914     7.8807     2.4033    
973.7348   8.5        9.5942     65.4083    134.9931   373.5945   93.6664    78.7124    0.4601     0.410457   2.4223     2.1467     1.2516     1.1915     7.8468     2.3866    
973.8872   8.5        9.5955     66.0218    135.266    373.1631   94.5382    79.36726   0.4632     0.4149771  2.4831     2.1415     1.2569     1.1986     8.0043     2.2494    
974.0396   8.5        9.5861     66.0874    135.1857   374.2238   95.5111    80.09806   0.4671     0.4206636  2.5537     2.1374     1.2631     1.2035     8.2672     2.08      
974.192    8.5        9.5131     66.2823    134.6774   374.0762   96.1658    80.58984   0.4715     0.4270793  2.5985     2.1353     1.2688     1.2089     8.4069     2.0046    
974.3444   8.5        9.4076     66.7043    133.9997   373.779    96.4412    80.79671   0.472      0.4278083  2.6254     2.1359     1.2724     1.2131     8.3386     2.0368    
974.4968   8.5        9.3455     66.628     133.3838   373.2071   96.5015    80.84201   0.467      0.4205178  2.6707     2.1386     1.2719     1.2112     8.2035     2.0532    
974.6492   8.5        9.3558     65.9417    132.9108   372.7427   96.3559    80.73264   0.4632     0.4149771  2.7232     2.1408     1.2679     1.207      8.1192     2.0276    
974.8016   8.5        9.3885     65.248     132.7119   369.638    95.8482    80.35127   0.4668     0.4202262  2.7592     2.1417     1.2619     1.2043     7.9564     2.0365    
974.954    8.5        9.3714     64.8374    132.9888   367.2553   95.0474    79.74975   0.4751     0.4323284  2.7802     2.1419     1.2533     1.1983     7.6758     2.0911    
975.1064   8.5        9.3237     64.734     133.545    367.1067   94.6181    79.42728   0.4799     0.4393273  2.8005     2.1409     1.2439     1.1881     7.3924     2.1415    
975.2588   8.5        9.2995     65.2235    133.9094   369.4376   95.1291    79.81111   0.4797     0.4390357  2.8114     2.1385     1.2393     1.1828     7.2243     2.1699    
975.4112   8.5        9.3483     66.364     133.9894   371.6761   96.4837    80.82864   0.4786     0.4374318  2.8064     2.1371     1.2417     1.1841     7.2167     2.1778    
