~Version
 VERS              .         3.0                           : CWLS LOG ASCII STANDARD - VERSION 3.0
 WRAP              .         NO                            : ONE LINE PER DEPTH STEP
 DLM               .         SPACE                         : DELIMITING CHARACTER(SPACE TAB OR COMMA)
~Well Information
#_______________________________________________________________________________
#
#PARAMETER_NAME    .UNIT     VALUE                         : DESCRIPTION
#_______________________________________________________________________________
STRT               .M        200                           : First reference value
STOP               .M        2131.9748                     : Last reference value
STEP               .M        0.1524                        : Step increment
NULL               .         -9999                         : Missing value
COMP               .         PEMEX                         : Company
WELL               .         YETIC-1                       : Well name
FLD                .         YETIC                         : Field
LOC                .         PLAT. PRIDE WISCONSIN         : Location
SRVC               .         TEMPLE                        : Service Company
CTRY               .         MX                            : Country
DATE               .         01-Julio-2005                 : Service Date
X                  .M        364558.478                    : X or East-West coordinate
Y                  .M        2032524.533                   : Y or North South coordinate
GDAT               .                                       : Geodetic Datum
HZCS               .                                       : Horizontal Co-ordinate System
ACTIVO             .         ACTIVO REGIONAL EXPLORACION MARINA: 
APD                .                                       : Above Perm Datum
API                .                                       : API Number
CLASS              .         01-01-01                      : 
CNTY               .         COATZACOALCOS                 : County
CRSTATUS           .         1                             : 
CURRENT_CL         .         1                             : 
COUNTRY            .         Mexico                        : Mexico
DEVIATION_         .                                       : 
DISTRICT           .         278                           : 
DMF                .                                       : Drill Measured From
EDF                .         30.000000                     : Elev-Drill Floor
EGL                .         -42.000000                    : Elev-Ground Level
EKB                .         30.300000                     : Elev-Kelly Bushing.
EPD                .                                       : Elevation
EREF               .         33                            : 
FIELD              .         90016                         : 
FORM_AT_TD         .         PLI                           : 
Fecha_de_Inicio    .         01/01/2001                    : 01/01/2008
GEOLOGICAL         .                                       : 
GEOLOGIC_P         .         CUENCA SALINA DEL ISTMO       : 
INSERTED_B         .                                       : 
LAST_UPDAT         .         05-07-10                      : 
LMF                .                                       : Log Measured From
LOC1               .                                       : Location 1
NODE_ID            .         2595768                       : 
OBJECTID           .         15377                         : 
OPERATOR           .         PEP                           : 
ORIGINALWELLNAME   .         Yetic-1                       : 
PDAT               .                                       : Perm Datum
PERIODO            .         TERCIARIO                     : 
PRIMARY_SO         .         PEP                           : 
PROY_INV           .         COATZACOALCOS                 : 
Provincia          .          SALINA DEL ISTMO             :  PILAR REFORMA-AKAL
Proyecto           .         UCHUKIL                       : CAMPECHE ORIENTE
RNGE               .                                       : Range
RT_ELEVATI         .         33                            : 
SECT               .                                       : Section
SHORT_NAME         .         Yetic-1                       : 
SITUACION          .         PRODUCTOR DE GAS Y CONDENSADO : 
SITUATION          .         TAP                           : 
STAT               .         VERACRUZ                      : State
WSTA               .         PRODUCTOR DE ACEITE Y GAS     : TAPONADO POR ACCIDENTE MECANICO DURANTE LA PERFORACION
TIPO_DE_HCS        .                                       :  
TOWN               .                                       : Township
TVD                .         2122                          : 
TD                 .M        0                             : 0
UPDATED_BY         .         LESPEJEL                      : 
UWI                .         3060000972                    : 0
WATER_REF          .         SL                            : 
WELL_NUMBE         .         1                             : 
WELL_TYPE          .         MARINO                        : 
Water_depth        .         42                            : 40
XCOORD             .         364558.3961                   : MapXCoordinate
YCOORD             .         2032524.8110                  : MapYCoordinate
group              .         02 Octli Cahua.Block 3 A      : 
~Parameter Information Block
#_______________________________________________________________________________
#
#PARAMETER_NAME    .UNIT     VALUE                         : DESCRIPTION
#_______________________________________________________________________________
SET                .         LQC                           : 
TLFamily_BS        .         Bit Size                      : 
TLFamily_CALI      .         Caliper                       : 
TLFamily_CGR       .         Gamma Ray Minus Uranium       : 
TLFamily_DT        .         Compressional Slowness        : 
TLFamily_DTS       .         Shear Slowness                : 
TLFamily_GR        .         Gamma Ray                     : 
TLFamily_GR_EDITED .         Gamma Ray                     : 
TLFamily_MD        .         Measured Depth                : 
TLFamily_NPHI      .         Neutron Porosity              : 
TLFamily_NPHI_EDITED .         Neutron Porosity              : 
TLFamily_POTA      .         Potassium Concentration       : 
TLFamily_RHOB      .         Bulk Density                  : 
TLFamily_RP        .         Resistivity - Deep            : 
TLFamily_RS        .         Resistivity - Shallow         : 
TLFamily_THOR      .         Thorium Concentration         : 
TLFamily_URAN      .         Uranium Concentration         : 
group              .         Registros Editados            : 
~Curve Information
#_______________________________________________________________________________
#
#LOGNAME           .UNIT     LOG_ID                        : DESCRIPTION
#_______________________________________________________________________________
DEPTH              .M                                      :  {F}
BS                 .in                                     :  {F}
CALI               .in                                     :  {F}
CGR                .gAPI                                   :  {F}
DT                 .us/ft                                  :  {F}
DTS                .us/ft                                  :  {F}
GR                 .gAPI                                   :  {F}
GR_EDITED          .gAPI                                   : Normalized by Techlog {F}
NPHI               .V/V                                    :  {F}
NPHI_EDITED        .m3/m3                                  : Normalized by Techlog {F}
POTA               .%                                      :  {F}
RHOB               .g/cc                                   :  {F}
RP                 .OHMM                                   :  {F}
RS                 .OHMM                                   :  {F}
THOR               .ppm                                    :  {F}
URAN               .ppm                                    :  {F}
~Ascii
# ...
717.7028   8.5        9.4315     47.5582    140.0174   426.1289   55.6247    50.13726   0.4599     0.4760325  1.7475     2.0398     0.5002     0.5098     6.4888     0.1419    
717.8552   8.5        9.2757     47.8116    140.0629   428.5363   57.4676    51.52156   0.4437     0.4562716  1.8204     2.0459     0.5447     0.5795     6.3362     0.1462    
718.0076   8.5        9.1686     48.2266    140.9523   432.8987   59.1702    52.80047   0.4305     0.4401701  1.8761     2.0591     0.5555     0.6121     6.2379     0.175     
718.16     8.5        9.0947     47.8018    142.8586   437.2589   60.6452    53.90842   0.4204     0.4278501  1.8623     2.0689     0.547      0.6128     6.063      0.2686    
718.3124   8.5        9.0601     46.523     144.8214   439.7801   61.5826    54.61255   0.4153     0.4216291  1.8255     2.0651     0.5411     0.6097     5.7197     0.4029    
718.4648   8.5        9.0654     44.7166    145.6008   439.8821   61.5854    54.61465   0.4181     0.4250445  1.8056     2.0534     0.541      0.6094     5.2559     0.5456    
718.6172   8.5        9.1011     43.7643    145.5013   438.0532   59.9936    53.41897   0.4269     0.4357789  1.7776     2.0432     0.546      0.6101     4.7143     0.6769    
718.7696   8.5        9.1642     41.5006    145.7694   435.475    57.3432    51.42812   0.4335     0.4438296  1.7471     2.0325     0.5495     0.6094     4.2936     0.7163    
718.922    8.5        9.2542     40.5757    146.6292   433.2278   55.1762    49.80037   0.4348     0.4454153  1.7524     2.0177     0.5302     0.5882     4.254      0.6127    
719.0744   8.5        9.3629     39.6137    147.4305   432.2028   54.1794    49.05162   0.4363     0.447245   1.7796     2.0063     0.4861     0.5349     4.3909     0.4668    
719.2268   8.5        9.4864     39.9695    148.1444   433.664    54.2238    49.08497   0.4431     0.4555397  1.7877     2.004      0.4507     0.4839     4.4827     0.3955    
719.3792   8.5        9.6105     40.3624    148.8834   436.5861   54.2681    49.11824   0.4534     0.4681037  1.7759     2.0074     0.4445     0.4723     4.6149     0.3817    
719.5316   8.5        9.7173     40.7995    148.7406   439.5413   54.3261    49.16181   0.4617     0.4782281  1.7674     2.014      0.4476     0.478      4.8469     0.3988    
719.684    8.5        9.7987     40.9626    147.2378   440.8602   54.5208    49.30806   0.466      0.4834733  1.7806     2.0248     0.4445     0.4697     4.9724     0.4541    
719.8364   8.5        9.8355     41.4698    145.2738   439.7034   55.1129    49.75282   0.4694     0.4876207  1.8164     2.0364     0.4481     0.4657     4.7893     0.5414    
719.9888   8.5        9.837      41.8139    143.5985   437.953    56.1096    50.50149   0.4727     0.491646   1.8676     2.0448     0.466      0.4846     4.572      0.6169    
720.1412   8.5        9.8361     42.3897    142.2409   436.9111   57.7531    51.73601   0.4722     0.4910361  1.913      2.0518     0.4931     0.5129     4.5893     0.6351    
720.2936   8.5        9.8626     42.2432    141.1191   437.2217   59.8719    53.32755   0.4658     0.4832293  1.9357     2.0594     0.5265     0.5494     4.7045     0.6402    
720.446    8.5        9.9269     42.2593    140.0573   438.2165   62.3077    55.15722   0.454      0.4688356  1.9482     2.0643     0.5578     0.5895     4.8367     0.623     
720.5984   8.5        9.9937     42.6315    139.1204   437.9457   63.9832    56.41577   0.4436     0.4561496  1.9528     2.0644     0.5777     0.6171     5.0819     0.5613    
720.7508   8.5        10.023     42.9876    138.6846   435.9416   63.9572    56.39624   0.4401     0.4518803  1.929      2.0659     0.5918     0.6318     5.3739     0.5002    
720.9032   8.5        10.0189    43.6595    138.639    432.4128   62.242     55.10786   0.4368     0.4478549  1.8868     2.0774     0.6082     0.6482     5.5914     0.4634    
721.0556   8.5        10.0077    44.3193    138.4187   428.5488   60.1435    53.53157   0.4308     0.4405361  1.8505     2.0977     0.6231     0.6677     5.6998     0.4051    
721.208    8.5        9.9992     44.7789    137.9494   425.4596   58.0716    51.97525   0.4288     0.4380965  1.8235     2.1151     0.6351     0.6789     5.6818     0.3317    
721.3604   8.5        9.9724     45.5744    137.5077   423.3616   56.1722    50.54851   0.4317     0.4416339  1.7934     2.1178     0.6525     0.6891     5.7134     0.2541    
721.5128   8.5        9.9445     45.9102    136.9895   423.3189   54.4599    49.26231   0.437      0.4480989  1.7734     2.1032     0.676      0.7107     5.8693     0.1819    
721.6652   8.5        9.9241     46.0878    136.3413   424.656    54.0533    48.95689   0.4404     0.4522462  1.7754     2.082      0.6893     0.7319     6.0535     0.1469    
721.8176   8.5        9.8492     45.9426    135.9535   426.873    53.6796    48.67619   0.4326     0.4427317  1.7892     2.0675     0.6759     0.7294     6.1806     0.1402    
721.97     8.5        9.7698     45.7375    136.1687   428.5804   53.785     48.75536   0.4139     0.4199213  1.8081     2.0649     0.641      0.7012     6.2841     0.1404    
722.1224   8.5        9.7371     45.3962    136.9209   429.8722   53.8113    48.77512   0.3984     0.4010144  1.8134     2.0729     0.612      0.6734     6.3584     0.1402    
722.2748   8.5        9.7525     45.26      137.8067   431.6497   53.5394    48.57088   0.3974     0.3997945  1.7986     2.0859     0.6053     0.6696     6.3736     0.1397    
722.4272   8.5        9.7988     45.5058    138.5058   433.442    53.1641    48.28897   0.4078     0.4124805  1.7725     2.0962     0.6047     0.6794     6.3135     0.141     
722.5796   8.5        9.8436     46.1583    139.0177   433.9258   53.4329    48.49088   0.4157     0.422117   1.7591     2.0985     0.5909     0.6668     6.2366     0.1522    
722.732    8.5        9.8719     46.4799    139.1597   432.4554   54.6752    49.42404   0.4181     0.4250445  1.7631     2.0912     0.5751     0.6361     6.1319     0.196     
722.8844   8.5        9.8814     47.1194    138.8607   429.611    56.3894    50.71166   0.4232     0.4312656  1.777      2.0785     0.5752     0.6266     6.0629     0.224     
723.0368   8.5        9.8667     47.4374    138.8689   426.9222   57.7917    51.76501   0.4322     0.4422438  1.7912     2.0658     0.5827     0.6358     6.1435     0.1988    
723.1892   8.5        9.832      47.7661    139.6818   425.7679   58.5638    52.34497   0.4364     0.447367   1.8097     2.0567     0.5816     0.6341     6.3915     0.1578    
723.3416   8.5        9.7985     47.69      140.5622   426.1745   58.8672    52.57287   0.4319     0.4418779  1.8311     2.0519     0.5728     0.6217     6.6849     0.1441    
723.494    8.5        9.7673     47.3223    140.5753   427.0681   58.5713    52.35061   0.4257     0.4343151  1.8426     2.0499     0.5638     0.6161     6.8838     0.1419    
723.6464   8.5        9.7255     46.8071    139.8123   427.129    57.7404    51.72647   0.424      0.4322414  1.85       2.0481     0.5544     0.6218     6.9207     0.1427    
723.7988   8.5        9.6777     46.5836    139.0753   426.3608   56.7488    50.98163   0.4285     0.4377305  1.8707     2.0452     0.5398     0.6235     6.8125     0.1436    
723.9512   8.5        9.6355     46.274     138.9507   425.4611   55.8197    50.28373   0.4367     0.4477329  1.8991     2.0434     0.5182     0.6016     6.642      0.1437    
724.1036   8.5        9.6345     46.2605    139.5305   424.7458   55.0884    49.73441   0.4451     0.4579794  1.9062     2.0462     0.5008     0.5653     6.4921     0.1429    
724.256    8.5        9.7226     46.4923    140.2949   424.2619   54.8959    49.58982   0.4514     0.4656641  1.8888     2.0541     0.5049     0.5454     6.3143     0.1446    
724.4084   8.5        9.8781     47.2919    140.4336   424.5278   55.8221    50.28553   0.4525     0.4670059  1.8646     2.0625     0.5331     0.554      6.0261     0.166     
724.5608   8.5        10.0133    47.8462    139.9025   426.0928   57.5131    51.55573   0.449      0.4627366  1.8347     2.0661     0.5722     0.5902     5.6619     0.2685    
