~Version
 VERS              .         3.0                           : CWLS LOG ASCII STANDARD - VERSION 3.0
 WRAP              .         NO                            : ONE LINE PER DEPTH STEP
 DLM               .         SPACE                         : DELIMITING CHARACTER(SPACE TAB OR COMMA)
~Well Information
#_______________________________________________________________________________
#
#PARAMETER_NAME    .UNIT     VALUE                         : DESCRIPTION
#_______________________________________________________________________________
STRT               .M        200                           : First reference value
STOP               .M        2131.9748                     : Last reference value
STEP               .M        0.1524                        : Step increment
NULL               .         -9999                         : Missing value
COMP               .         PEMEX                         : Company
WELL               .         YETIC-1                       : Well name
FLD                .         YETIC                         : Field
LOC                .         PLAT. PRIDE WISCONSIN         : Location
SRVC               .         TEMPLE                        : Service Company
CTRY               .         MX                            : Country
DATE               .         01-Julio-2005                 : Service Date
X                  .M        364558.478                    : X or East-West coordinate
Y                  .M        2032524.533                   : Y or North South coordinate
GDAT               .                                       : Geodetic Datum
HZCS               .                                       : Horizontal Co-ordinate System
ACTIVO             .         ACTIVO REGIONAL EXPLORACION MARINA: 
APD                .                                       : Above Perm Datum
API                .                                       : API Number
CLASS              .         01-01-01                      : 
CNTY               .         COATZACOALCOS                 : County
CRSTATUS           .         1                             : 
CURRENT_CL         .         1                             : 
COUNTRY            .         Mexico                        : Mexico
DEVIATION_         .                                       : 
DISTRICT           .         278                           : 
DMF                .                                       : Drill Measured From
EDF                .         30.000000                     : Elev-Drill Floor
EGL                .         -42.000000                    : Elev-Ground Level
EKB                .         30.300000                     : Elev-Kelly Bushing.
EPD                .                                       : Elevation
EREF               .         33                            : 
FIELD              .         90016                         : 
FORM_AT_TD         .         PLI                           : 
Fecha_de_Inicio    .         01/01/2001                    : 01/01/2008
GEOLOGICAL         .                                       : 
GEOLOGIC_P         .         CUENCA SALINA DEL ISTMO       : 
INSERTED_B         .                                       : 
LAST_UPDAT         .         05-07-10                      : 
LMF                .                                       : Log Measured From
LOC1               .                                       : Location 1
NODE_ID            .         2595768                       : 
OBJECTID           .         15377                         : 
OPERATOR           .         PEP                           : 
ORIGINALWELLNAME   .         Yetic-1                       : 
PDAT               .                                       : Perm Datum
PERIODO            .         TERCIARIO                     : 
PRIMARY_SO         .         PEP                           : 
PROY_INV           .         COATZACOALCOS                 : 
Provincia          .          SALINA DEL ISTMO             :  PILAR REFORMA-AKAL
Proyecto           .         UCHUKIL                       : CAMPECHE ORIENTE
RNGE               .                                       : Range
RT_ELEVATI         .         33                            : 
SECT               .                                       : Section
SHORT_NAME         .         Yetic-1                       : 
SITUACION          .         PRODUCTOR DE GAS Y CONDENSADO : 
SITUATION          .         TAP                           : 
STAT               .         VERACRUZ                      : State
WSTA               .         PRODUCTOR DE ACEITE Y GAS     : TAPONADO POR ACCIDENTE MECANICO DURANTE LA PERFORACION
TIPO_DE_HCS        .                                       :  
TOWN               .                                       : Township
TVD                .         2122                          : 
TD                 .M        0                             : 0
UPDATED_BY         .         LESPEJEL                      : 
UWI                .         3060000972                    : 0
WATER_REF          .         SL                            : 
WELL_NUMBE         .         1                             : 
WELL_TYPE          .         MARINO                        : 
Water_depth        .         42                            : 40
XCOORD             .         364558.3961                   : MapXCoordinate
YCOORD             .         2032524.8110                  : MapYCoordinate
group              .         02 Octli Cahua.Block 3 A      : 
~Parameter Information Block
#_______________________________________________________________________________
#
#PARAMETER_NAME    .UNIT     VALUE                         : DESCRIPTION
#_______________________________________________________________________________
SET                .         LQC                           : 
TLFamily_BS        .         Bit Size                      : 
TLFamily_CALI      .         Caliper                       : 
TLFamily_CGR       .         Gamma Ray Minus Uranium       : 
TLFamily_DT        .         Compressional Slowness        : 
TLFamily_DTS       .         Shear Slowness                : 
TLFamily_GR        .         Gamma Ray                     : 
TLFamily_GR_EDITED .         Gamma Ray                     : 
TLFamily_MD        .         Measured Depth                : 
TLFamily_NPHI      .         Neutron Porosity              : 
TLFamily_NPHI_EDITED .         Neutron Porosity              : 
TLFamily_POTA      .         Potassium Concentration       : 
TLFamily_RHOB      .         Bulk Density                  : 
TLFamily_RP        .         Resistivity - Deep            : 
TLFamily_RS        .         Resistivity - Shallow         : 
TLFamily_THOR      .         Thorium Concentration         : 
TLFamily_URAN      .         Uranium Concentration         : 
group              .         Registros Editados            : 
~Curve Information
#_______________________________________________________________________________
#
#LOGNAME           .UNIT     LOG_ID                        : DESCRIPTION
#_______________________________________________________________________________
DEPTH              .M                                      :  {F}
BS                 .in                                     :  {F}
CALI               .in                                     :  {F}
CGR                .gAPI                                   :  {F}
DT                 .us/ft                                  :  {F}
DTS                .us/ft                                  :  {F}
GR                 .gAPI                                   :  {F}
GR_EDITED          .gAPI                                   : Normalized by Techlog {F}
NPHI               .V/V                                    :  {F}
NPHI_EDITED        .m3/m3                                  : Normalized by Techlog {F}
POTA               .%                                      :  {F}
RHOB               .g/cc                                   :  {F}
RP                 .OHMM                                   :  {F}
RS                 .OHMM                                   :  {F}
THOR               .ppm                                    :  {F}
URAN               .ppm                                    :  {F}
~Ascii
# ...
1347.1148  8.5        9.5001     71.5067    129.7913   349.3522   102.2441   85.15558   0.4794     0.4385982  2.6411     2.1946     0.8064     0.7905     10.2733    1.4278    
1347.2672  8.5        9.4342     72.3199    129.893    345.4855   103.1142   85.80915   0.4814     0.4415144  2.6775     2.1893     0.8012     0.7842     10.2859    1.2963    
1347.4196  8.5        9.3567     73.135     129.6018   345.9048   103.0362   85.75056   0.4837     0.4448681  2.6946     2.1839     0.7951     0.7745     10.0284    1.333     
1347.572   8.5        9.3369     73.6507    128.5597   349.8067   102.1031   85.04967   0.4875     0.4504088  2.6935     2.181      0.7924     0.7713     9.5415     1.5234    
1347.7244  8.5        9.4168     72.9792    127.1381   354.8625   100.9182   84.15962   0.4939     0.4597406  2.6838     2.1838     0.7909     0.7708     8.9288     1.7943    
1347.8768  8.5        9.4906     71.2856    126.213    358.0116   99.9873    83.46037   0.4969     0.4641149  2.6771     2.1958     0.7911     0.7715     8.3689     2.034     
1348.0292  8.5        9.4691     69.008     126.161    356.4445   99.3027    82.94613   0.4943     0.4603239  2.6858     2.2144     0.7948     0.7762     8.0103     2.1657    
1348.1816  8.5        9.4041     66.9732    126.8093   351.1621   98.5626    82.3902    0.4891     0.4527418  2.6897     2.2282     0.8006     0.7828     7.8743     2.2278    
1348.334   8.5        9.3765     65.8343    127.8109   345.1077   97.7993    81.81685   0.4855     0.4474926  2.658      2.229      0.8046     0.7878     7.7817     2.3396    
1348.4864  8.5        9.3546     65.3819    128.6917   341.4745   97.3591    81.48619   0.4915     0.4562412  2.624      2.2197     0.8016     0.7879     7.6195     2.4955    
1348.6388  8.5        9.2926     64.6167    129.1357   342.0512   97.727     81.76254   0.5041     0.4746133  2.6037     2.2077     0.7904     0.7783     7.4767     2.6306    
1348.7912  8.5        9.2626     63.5693    129.1627   345.024    98.5705    82.39614   0.5099     0.4830702  2.5963     2.1982     0.7803     0.7635     7.4557     2.684     
1348.9436  8.5        9.3192     62.7924    128.8067   348.7274   99.4261    83.03883   0.5051     0.4760714  2.6001     2.1936     0.7801     0.7586     7.5304     2.6524    
1349.096   8.5        9.408      62.6093    128.0603   351.3948   100.3412   83.7262    0.4951     0.4614903  2.6168     2.1945     0.7856     0.7649     7.6423     2.5837    
1349.2484  8.5        9.463      62.9304    127.0777   352.1101   101.2083   84.37753   0.4849     0.4466178  2.63       2.1999     0.7882     0.7689     7.8088     2.5188    
1349.4008  8.5        9.4821     63.5485    126.1476   351.1614   101.8562   84.8642    0.4794     0.4385982  2.6352     2.2073     0.7858     0.7674     8.0325     2.4726    
1349.5532  8.5        9.48       65.1743    125.5786   349.295    101.9094   84.90416   0.4807     0.4404937  2.6311     2.2128     0.7811     0.7636     8.2128     2.4601    
1349.7056  8.5        9.4653     65.7071    125.5478   348.7916   101.7834   84.80952   0.4858     0.44793    2.6205     2.2126     0.7775     0.7591     8.215      2.4965    
1349.858   8.5        9.4575     65.5807    125.8702   351.0257   101.6589   84.716     0.4911     0.455658   2.6024     2.207      0.7786     0.7591     8.0126     2.6088    
1350.0104  8.5        9.4628     64.6125    126.2209   355.5558   101.334    84.47195   0.4929     0.4582826  2.5874     2.2009     0.7841     0.7659     7.7036     2.7409    
1350.1628  8.5        9.4649     63.3546    126.5375   360.2272   100.9557   84.18779   0.4887     0.4521585  2.5575     2.198      0.7886     0.7728     7.4836     2.86      
1350.3152  8.5        9.4361     62.194     126.8983   360.1995   100.794    84.06633   0.4824     0.4429725  2.5121     2.1984     0.7888     0.7734     7.4235     2.9475    
1350.4676  8.5        9.3825     61.3443    127.3857   357.7848   101.2742   84.42703   0.4801     0.4396189  2.4844     2.2004     0.7862     0.7694     7.5668     2.9245    
1350.62    8.5        9.3438     61.4607    128.062    352.9988   102.2933   85.19254   0.4804     0.4400563  2.4803     2.2034     0.7829     0.7652     7.8627     2.7971    
1350.7724  8.5        9.339      62.41      128.7402   350.4129   103.4673   86.07439   0.4793     0.4384524  2.4832     2.2057     0.7784     0.7614     8.1078     2.667     
1350.9248  8.5        9.3657     63.2751    129.1263   353.352    104.0164   86.48685   0.4831     0.4439932  2.4836     2.2055     0.7713     0.7556     8.137      2.6333    
1351.0772  8.5        9.4057     63.3937    129.0859   355.6197   103.0621   85.77002   0.4955     0.4620736  2.4912     2.2021     0.7653     0.7485     8.1246     2.6228    
1351.2296  8.5        9.43       63.5109    128.613    350.7228   101.4779   84.58004   0.5053     0.4763629  2.5076     2.1969     0.7655     0.7472     8.2695     2.5508    
1351.382   8.5        9.4269     64.2475    127.9186   345.4901   100.0567   83.5125    0.5033     0.4734468  2.5202     2.1919     0.7715     0.7551     8.3903     2.4889    
1351.5344  8.5        9.402      64.7925    127.4036   341.9615   99.5524    83.1337    0.4974     0.464844   2.5077     2.1894     0.7781     0.7651     8.2724     2.551     
1351.6868  8.5        9.3692     64.2036    127.3117   341.4435   99.0189    82.73296   0.4943     0.4603239  2.4738     2.1898     0.7813     0.7709     8.043      2.6873    
1351.8392  8.5        9.3689     62.9777    127.4777   343.5547   98.6246    82.43678   0.4899     0.4539083  2.439      2.192      0.7802     0.7708     7.9255     2.7928    
1351.9916  8.5        9.4077     62.0773    127.6266   346.6922   98.5909    82.41145   0.4822     0.4426809  2.4063     2.1954     0.7782     0.767      7.7806     2.9214    
1352.144   8.5        9.448      61.0705    127.7975   348.8188   99.0721    82.77292   0.4772     0.4353904  2.3686     2.2002     0.7798     0.7667     7.5251     3.0826    
1352.2964  8.5        9.4861     59.6571    128.1155   347.8156   99.3434    82.9767    0.4764     0.4342239  2.3501     2.205      0.7841     0.7718     7.3344     3.1594    
1352.4488  8.5        9.5375     58.7439    128.4975   343.1179   98.5543    82.38397   0.477      0.4350988  2.3668     2.2067     0.7864     0.7755     7.3001     3.1008    
1352.6012  8.5        9.6208     58.8648    128.809    335.8668   96.971     81.19467   0.4795     0.438744   2.3917     2.2051     0.7858     0.7739     7.3219     3.001     
1352.7536  8.5        9.7027     59.2629    129.0747   328.4232   95.6293    80.18684   0.4821     0.4425351  2.3887     2.2032     0.784      0.771      7.3132     2.9431    
1352.906   8.5        9.7409     59.1799    129.5112   322.8169   95.3107    79.94753   0.4834     0.4444306  2.3583     2.2037     0.7798     0.7685     7.2619     2.9344    
1353.0584  8.5        9.766      58.5847    130.2104   319.264    95.7116    80.24867   0.4847     0.4463261  2.3287     2.2054     0.7696     0.7599     7.2237     2.9151    
1353.2108  8.5        9.7931     58.0512    130.8128   316.9963   95.674     80.22043   0.4898     0.4537624  2.3342     2.2054     0.7556     0.7435     7.2386     2.8543    
1353.3632  8.5        9.7847     58.8066    130.7808   315.4139   94.4828    79.32565   0.4993     0.4676144  2.3771     2.2039     0.746      0.7299     7.2518     2.7823    
1353.5156  8.5        9.781      59.5433    129.9865   314.5441   93.2716    78.41585   0.5055     0.4766546  2.4305     2.204      0.747      0.7298     7.2436     2.7139    
1353.668   8.5        9.8204     60.5236    128.8685   314.2962   92.9779    78.19524   0.5037     0.47403    2.4759     2.2075     0.7547     0.7397     7.3344     2.6083    
1353.8204  8.5        9.8389     61.8389    128.0617   313.748    94.2048    79.11683   0.4975     0.4649898  2.5056     2.2117     0.7601     0.7461     7.595      2.4588    
1353.9728  8.5        9.8758     62.9578    128.002    311.2013   95.3819    80.00101   0.494      0.4598864  2.5103     2.2123     0.7611     0.7458     7.9048     2.3319    
