~Version
 VERS              .         3.0                           : CWLS LOG ASCII STANDARD - VERSION 3.0
 WRAP              .         NO                            : ONE LINE PER DEPTH STEP
 DLM               .         SPACE                         : DELIMITING CHARACTER(SPACE TAB OR COMMA)
~Well Information
#_______________________________________________________________________________
#
#PARAMETER_NAME    .UNIT     VALUE                         : DESCRIPTION
#_______________________________________________________________________________
STRT               .M        200                           : First reference value
STOP               .M        2131.9748                     : Last reference value
STEP               .M        0.1524                        : Step increment
NULL               .         -9999                         : Missing value
COMP               .         PEMEX                         : Company
WELL               .         YETIC-1                       : Well name
FLD                .         YETIC                         : Field
LOC                .         PLAT. PRIDE WISCONSIN         : Location
SRVC               .         TEMPLE                        : Service Company
CTRY               .         MX                            : Country
DATE               .         01-Julio-2005                 : Service Date
X                  .M        364558.478                    : X or East-West coordinate
Y                  .M        2032524.533                   : Y or North South coordinate
GDAT               .                                       : Geodetic Datum
HZCS               .                                       : Horizontal Co-ordinate System
ACTIVO             .         ACTIVO REGIONAL EXPLORACION MARINA: 
APD                .                                       : Above Perm Datum
API                .                                       : API Number
CLASS              .         01-01-01                      : 
CNTY               .         COATZACOALCOS                 : County
CRSTATUS           .         1                             : 
CURRENT_CL         .         1                             : 
COUNTRY            .         Mexico                        : Mexico
DEVIATION_         .                                       : 
DISTRICT           .         278                           : 
DMF                .                                       : Drill Measured From
EDF                .         30.000000                     : Elev-Drill Floor
EGL                .         -42.000000                    : Elev-Ground Level
EKB                .         30.300000                     : Elev-Kelly Bushing.
EPD                .                                       : Elevation
EREF               .         33                            : 
FIELD              .         90016                         : 
FORM_AT_TD         .         PLI                           : 
Fecha_de_Inicio    .         01/01/2001                    : 01/01/2008
GEOLOGICAL         .                                       : 
GEOLOGIC_P         .         CUENCA SALINA DEL ISTMO       : 
INSERTED_B         .                                       : 
LAST_UPDAT         .         05-07-10                      : 
LMF                .                                       : Log Measured From
LOC1               .                                       : Location 1
NODE_ID            .         2595768                       : 
OBJECTID           .         15377                         : 
OPERATOR           .         PEP                           : 
ORIGINALWELLNAME   .         Yetic-1                       : 
PDAT               .                                       : Perm Datum
PERIODO            .         TERCIARIO                     : 
PRIMARY_SO         .         PEP                           : 
PROY_INV           .         COATZACOALCOS                 : 
Provincia          .          SALINA DEL ISTMO             :  PILAR REFORMA-AKAL
Proyecto           .         UCHUKIL                       : CAMPECHE ORIENTE
RNGE               .                                       : Range
RT_ELEVATI         .         33                            : 
SECT               .                                       : Section
SHORT_NAME         .         Yetic-1                       : 
SITUACION          .         PRODUCTOR DE GAS Y CONDENSADO : 
SITUATION          .         TAP                           : 
STAT               .         VERACRUZ                      : State
WSTA               .         PRODUCTOR DE ACEITE Y GAS     : TAPONADO POR ACCIDENTE MECANICO DURANTE LA PERFORACION
TIPO_DE_HCS        .                                       :  
TOWN               .                                       : Township
TVD                .         2122                          : 
TD                 .M        0                             : 0
UPDATED_BY         .         LESPEJEL                      : 
UWI                .         3060000972                    : 0
WATER_REF          .         SL                            : 
WELL_NUMBE         .         1                             : 
WELL_TYPE          .         MARINO                        : 
Water_depth        .         42                            : 40
XCOORD             .         364558.3961                   : MapXCoordinate
YCOORD             .         2032524.8110                  : MapYCoordinate
group              .         02 Octli Cahua.Block 3 A      : 
~Parameter Information Block
#_______________________________________________________________________________
#
#PARAMETER_NAME    .UNIT     VALUE                         : DESCRIPTION
#_______________________________________________________________________________
SET                .         LQC                           : 
TLFamily_BS        .         Bit Size                      : 
TLFamily_CALI      .         Caliper                       : 
TLFamily_CGR       .         Gamma Ray Minus Uranium       : 
TLFamily_DT        .         Compressional Slowness        : 
TLFamily_DTS       .         Shear Slowness                : 
TLFamily_GR        .         Gamma Ray                     : 
TLFamily_GR_EDITED .         Gamma Ray                     : 
TLFamily_MD        .         Measured Depth                : 
TLFamily_NPHI      .         Neutron Porosity              : 
TLFamily_NPHI_EDITED .         Neutron Porosity              : 
TLFamily_POTA      .         Potassium Concentration       : 
TLFamily_RHOB      .         Bulk Density                  : 
TLFamily_RP        .         Resistivity - Deep            : 
TLFamily_RS        .         Resistivity - Shallow         : 
TLFamily_THOR      .         Thorium Concentration         : 
TLFamily_URAN      .         Uranium Concentration         : 
group              .         Registros Editados            : 
~Curve Information
#_______________________________________________________________________________
#
#LOGNAME           .UNIT     LOG_ID                        : DESCRIPTION
#_______________________________________________________________________________
DEPTH              .M                                      :  {F}
BS                 .in                                     :  {F}
CALI               .in                                     :  {F}
CGR                .gAPI                                   :  {F}
DT                 .us/ft                                  :  {F}
DTS                .us/ft                                  :  {F}
GR                 .gAPI                                   :  {F}
GR_EDITED          .gAPI                                   : Normalized by Techlog {F}
NPHI               .V/V                                    :  {F}
NPHI_EDITED        .m3/m3                                  : Normalized by Techlog {F}
POTA               .%                                      :  {F}
RHOB               .g/cc                                   :  {F}
RP                 .OHMM                                   :  {F}
RS                 .OHMM                                   :  {F}
THOR               .ppm                                    :  {F}
URAN               .ppm                                    :  {F}
~Ascii
# ...
1732.6868  8.5        10.2201    61.4122    119.0363   258.7734   87.7272    74.25116   0.4741     0.4275619  2.6328     2.1022     0.5853     0.6064     6.9011     1.7577    
1732.8392  8.5        10.7693    61.4994    115.7358   254.3748   89.1437    75.31517   0.4465     0.40466    2.6252     2.1128     0.6113     0.6525     6.7518     1.5877    
1732.9916  8.5        10.3622    61.3247    112.6944   251.69     90.0157    75.97017   0.4271     0.3885622  2.6511     2.1475     0.6049     0.6451     6.6738     1.5332    
1733.144   8.5        9.4876     60.8327    111.2223   251.1342   90.1756    76.09028   0.4252     0.3869856  2.6776     2.1789     0.5717     0.5853     6.5947     1.5623    
1733.2964  8.5        9.0339     60.5603    111.7475   253.4205   88.0154    74.46764   0.445      0.4034153  2.7299     2.1696     0.5449     0.5352     6.5922     1.5903    
1733.4488  8.5        9.2034     60.6572    114.062    257.4318   84.805     72.05614   0.4769     0.4298854  2.8169     2.1199     0.541      0.5248     6.7469     1.6292    
1733.6012  8.5        9.7044     61.0763    117.0334   261.5629   82.9798    70.68513   0.505      0.4532022  2.8757     2.0695     0.5603     0.549      6.8869     1.6529    
1733.7536  8.5        10.1378    61.4434    118.8257   264.0937   84.3223    71.69356   0.5112     0.4583469  2.853      2.0523     0.6027     0.6099     6.8899     1.5922    
1733.906   8.5        10.3774    63.1974    118.3386   263.9543   87.5515    74.11918   0.498      0.4473937  2.7938     2.0698     0.6414     0.6899     6.8448     1.4035    
1734.0584  8.5        10.4579    64.4884    116.1544   262.3444   90.2755    76.16531   0.4926     0.4429129  2.7988     2.0979     0.6363     0.7082     6.9936     1.2014    
1734.2108  8.5        10.3352    64.1779    113.6132   260.2387   91.3749    76.99113   0.4935     0.4436597  2.8279     2.1214     0.5967     0.6439     7.2843     1.1472    
1734.3632  8.5        9.9352     63.2286    111.6187   258.2304   89.3153    75.44406   0.4864     0.4377683  2.7629     2.1434     0.5654     0.5792     7.4358     1.336     
1734.5156  8.5        9.6695     63.5388    110.5954   256.2092   84.9448    72.16115   0.4812     0.4334534  2.6058     2.1641     0.5571     0.5561     7.2223     1.6642    
1734.668   8.5        9.6772     64.5347    110.4558   253.4721   80.9119    69.13182   0.4844     0.4361087  2.4504     2.1722     0.5576     0.5562     6.7999     1.9064    
1734.8204  8.5        9.7645     64.9945    110.7151   250.8342   79.7652    68.27048   0.4896     0.4404236  2.38       2.1619     0.5579     0.5602     6.5893     1.9913    
1734.9728  8.5        9.8147     63.3121    111.1022   248.449    81.4765    69.55592   0.4907     0.4413363  2.3834     2.1505     0.5588     0.5676     6.7009     1.9338    
1735.1252  8.5        9.7825     60.0709    111.6076   246.6149   83.6244    71.16933   0.4885     0.4395108  2.3938     2.1611     0.5608     0.5771     7.0797     1.7025    
1735.2776  8.5        9.6315     58.2862    111.9885   245.6382   84.7974    72.05043   0.4891     0.4400087  2.4047     2.192      0.5627     0.5829     7.6249     1.4296    
1735.43    8.5        9.4943     56.5934    111.8469   245.7243   84.7431    72.00964   0.4909     0.4415023  2.4045     2.2203     0.5641     0.5845     8.0113     1.257     
1735.5824  8.5        9.6053     57.0006    111.399    246.7371   84.3372    71.70474   0.4894     0.4402576  2.4011     2.2325     0.5624     0.5813     8.2926     1.1304    
1735.7348  8.5        9.9168     58.4637    111.4551   248.298    84.5702    71.87976   0.4862     0.4376023  2.3861     2.2326     0.5566     0.5728     8.4763     1.079     
1735.8872  8.5        10.1786    59.4755    112.2817   249.9438   85.0986    72.27667   0.4848     0.4364406  2.3683     2.2242     0.5524     0.5658     8.4232     1.1182    
1736.0396  8.5        10.2689    61.1513    113.249    251.4285   85.1209    72.29343   0.4824     0.4344491  2.3482     2.2022     0.5566     0.5702     8.1693     1.2126    
1736.192   8.5        10.4209    62.31      113.6842   252.9353   83.7643    71.27441   0.4768     0.4298024  2.3331     2.1682     0.5672     0.5856     7.9415     1.2625    
1736.3444  8.5        10.4916    63.0207    113.4774   254.8949   81.2       69.34823   0.4739     0.427396   2.3305     2.1373     0.5744     0.597      7.786      1.2827    
1736.4968  8.5        10.0829    63.0156    113.0771   257.7198   78.3664    67.21976   0.4747     0.4280598  2.3591     2.1229     0.573      0.594      7.6913     1.3063    
1736.6492  8.5        9.5144     62.7947    113.0969   261.3752   76.1042    65.52051   0.4794     0.4319598  2.3879     2.1192     0.5683     0.5842     7.6504     1.35      
1736.8016  8.5        9.2659     61.6183    113.7804   265.6925   74.8871    64.60628   0.4906     0.4412534  2.4033     2.1125     0.5676     0.5814     7.779      1.3789    
1736.954   8.5        9.3283     60.6358    115.2328   270.4203   75.0575    64.73427   0.4978     0.4472278  2.4793     2.1023     0.5692     0.5855     8.2281     1.2881    
1737.1064  8.5        9.4741     60.0587    118.1224   275.5362   76.5445    65.85123   0.4933     0.4434938  2.617      2.0998     0.568      0.5848     8.774      1.0687    
1737.2588  8.5        9.641      60.1152    122.5613   281.1589   78.7772    67.52834   0.483      0.434947   2.712      2.1046     0.5676     0.5828     8.918      0.8702    
1737.4112  8.5        9.9138     60.2635    126.7086   287.1027   81.1659    69.32262   0.4722     0.4259854  2.72       2.1029     0.5742     0.5915     8.579      0.8189    
1737.5636  8.5        10.1584    60.7412    128.4283   291.7814   83.2271    70.87089   0.4638     0.4190152  2.7107     2.0922     0.5848     0.6059     8.3257     0.8448    
1737.716   8.5        10.0464    62.3965    127.3434   291.6505   84.6745    71.95811   0.4571     0.4134557  2.7217     2.0901     0.5908     0.613      8.2331     0.8757    
1737.8684  8.5        9.5732     65.6053    124.5919   285.3778   85.162     72.3243    0.452      0.4092238  2.7788     2.1079     0.5908     0.6083     8.0922     0.9411    
1738.0208  8.5        9.147      68.3598    121.4278   273.5171   84.8479    72.08836   0.4491     0.4068174  2.8521     2.1337     0.5922     0.6017     7.8553     1.0595    
1738.1732  8.5        8.9873     69.2314    118.4088   260.1829   84.5977    71.90042   0.449      0.4067344  2.8845     2.1516     0.5993     0.6061     7.6228     1.1747    
1738.3256  8.5        8.9969     68.2652    115.6837   249.3964   84.8866    72.11743   0.4525     0.4096386  2.9016     2.1628     0.6079     0.6189     7.5559     1.2186    
1738.478   8.5        8.9663     67.312     113.2879   242.1277   86.0185    72.96766   0.4545     0.4112982  2.9422     2.1771     0.6139     0.6299     7.6471     1.1788    
1738.6304  8.5        8.8849     67.0942    111.151    238.1631   87.197     73.85289   0.4517     0.4089748  2.9754     2.1929     0.6189     0.6359     7.7203     1.0954    
1738.7828  8.5        8.8492     67.2339    109.7041   237.1611   88.0828    74.51826   0.448      0.4059047  2.9325     2.196      0.6248     0.6404     7.6239     1.0615    
1738.9352  8.5        8.854      67.478     110.009    239.1642   89.2066    75.36241   0.4505     0.4079791  2.8781     2.177      0.6283     0.6431     7.5189     1.0955    
1739.0876  8.5        8.9263     67.4134    112.1828   243.6564   90.3481    76.21985   0.4619     0.4174386  2.8408     2.1471     0.6271     0.638      7.4384     1.183     
1739.24    8.5        9.0899     67.2497    114.7954   249.2898   91.2074    76.86532   0.4781     0.4308811  2.8139     2.1315     0.6239     0.63       7.3684     1.2611    
1739.3924  8.5        9.3472     67.6832    116.6022   254.4408   92.2774    77.66905   0.4906     0.4412534  2.7942     2.142      0.6257     0.6295     7.3158     1.3012    
1739.5448  8.5        9.7486     68.1112    117.4951   258.1177   93.994     78.95848   0.4959     0.4456512  2.7834     2.1661     0.6422     0.648      7.3525     1.274     
