~Version
 VERS              .         3.0                           : CWLS LOG ASCII STANDARD - VERSION 3.0
 WRAP              .         NO                            : ONE LINE PER DEPTH STEP
 DLM               .         SPACE                         : DELIMITING CHARACTER(SPACE TAB OR COMMA)
~Well Information
#_______________________________________________________________________________
#
#PARAMETER_NAME    .UNIT     VALUE                         : DESCRIPTION
#_______________________________________________________________________________
STRT               .M        200                           : First reference value
STOP               .M        2131.9748                     : Last reference value
STEP               .M        0.1524                        : Step increment
NULL               .         -9999                         : Missing value
COMP               .         PEMEX                         : Company
WELL               .         YETIC-1                       : Well name
FLD                .         YETIC                         : Field
LOC                .         PLAT. PRIDE WISCONSIN         : Location
SRVC               .         TEMPLE                        : Service Company
CTRY               .         MX                            : Country
DATE               .         01-Julio-2005                 : Service Date
X                  .M        364558.478                    : X or East-West coordinate
Y                  .M        2032524.533                   : Y or North South coordinate
GDAT               .                                       : Geodetic Datum
HZCS               .                                       : Horizontal Co-ordinate System
ACTIVO             .         ACTIVO REGIONAL EXPLORACION MARINA: 
APD                .                                       : Above Perm Datum
API                .                                       : API Number
CLASS              .         01-01-01                      : 
CNTY               .         COATZACOALCOS                 : County
CRSTATUS           .         1                             : 
CURRENT_CL         .         1                             : 
COUNTRY            .         Mexico                        : Mexico
DEVIATION_         .                                       : 
DISTRICT           .         278                           : 
DMF                .                                       : Drill Measured From
EDF                .         30.000000                     : Elev-Drill Floor
EGL                .         -42.000000                    : Elev-Ground Level
EKB                .         30.300000                     : Elev-Kelly Bushing.
EPD                .                                       : Elevation
EREF               .         33                            : 
FIELD              .         90016                         : 
FORM_AT_TD         .         PLI                           : 
Fecha_de_Inicio    .         01/01/2001                    : 01/01/2008
GEOLOGICAL         .                                       : 
GEOLOGIC_P         .         CUENCA SALINA DEL ISTMO       : 
INSERTED_B         .                                       : 
LAST_UPDAT         .         05-07-10                      : 
LMF                .                                       : Log Measured From
LOC1               .                                       : Location 1
NODE_ID            .         2595768                       : 
OBJECTID           .         15377                         : 
OPERATOR           .         PEP                           : 
ORIGINALWELLNAME   .         Yetic-1                       : 
PDAT               .                                       : Perm Datum
PERIODO            .         TERCIARIO                     : 
PRIMARY_SO         .         PEP                           : 
PROY_INV           .         COATZACOALCOS                 : 
Provincia          .          SALINA DEL ISTMO             :  PILAR REFORMA-AKAL
Proyecto           .         UCHUKIL                       : CAMPECHE ORIENTE
RNGE               .                                       : Range
RT_ELEVATI         .         33                            : 
SECT               .                                       : Section
SHORT_NAME         .         Yetic-1                       : 
SITUACION          .         PRODUCTOR DE GAS Y CONDENSADO : 
SITUATION          .         TAP                           : 
STAT               .         VERACRUZ                      : State
WSTA               .         PRODUCTOR DE ACEITE Y GAS     : TAPONADO POR ACCIDENTE MECANICO DURANTE LA PERFORACION
TIPO_DE_HCS        .                                       :  
TOWN               .                                       : Township
TVD                .         2122                          : 
TD                 .M        0                             : 0
UPDATED_BY         .         LESPEJEL                      : 
UWI                .         3060000972                    : 0
WATER_REF          .         SL                            : 
WELL_NUMBE         .         1                             : 
WELL_TYPE          .         MARINO                        : 
Water_depth        .         42                            : 40
XCOORD             .         364558.3961                   : MapXCoordinate
YCOORD             .         2032524.8110                  : MapYCoordinate
group              .         02 Octli Cahua.Block 3 A      : 
~Parameter Information Block
#_______________________________________________________________________________
#
#PARAMETER_NAME    .UNIT     VALUE                         : DESCRIPTION
#_______________________________________________________________________________
SET                .         LQC                           : 
TLFamily_BS        .         Bit Size                      : 
TLFamily_CALI      .         Caliper                       : 
TLFamily_CGR       .         Gamma Ray Minus Uranium       : 
TLFamily_DT        .         Compressional Slowness        : 
TLFamily_DTS       .         Shear Slowness                : 
TLFamily_GR        .         Gamma Ray                     : 
TLFamily_GR_EDITED .         Gamma Ray                     : 
TLFamily_MD        .         Measured Depth                : 
TLFamily_NPHI      .         Neutron Porosity              : 
TLFamily_NPHI_EDITED .         Neutron Porosity              : 
TLFamily_POTA      .         Potassium Concentration       : 
TLFamily_RHOB      .         Bulk Density                  : 
TLFamily_RP        .         Resistivity - Deep            : 
TLFamily_RS        .         Resistivity - Shallow         : 
TLFamily_THOR      .         Thorium Concentration         : 
TLFamily_URAN      .         Uranium Concentration         : 
group              .         Registros Editados            : 
~Curve Information
#_______________________________________________________________________________
#
#LOGNAME           .UNIT     LOG_ID                        : DESCRIPTION
#_______________________________________________________________________________
DEPTH              .M                                      :  {F}
BS                 .in                                     :  {F}
CALI               .in                                     :  {F}
CGR                .gAPI                                   :  {F}
DT                 .us/ft                                  :  {F}
DTS                .us/ft                                  :  {F}
GR                 .gAPI                                   :  {F}
GR_EDITED          .gAPI                                   : Normalized by Techlog {F}
NPHI               .V/V                                    :  {F}
NPHI_EDITED        .m3/m3                                  : Normalized by Techlog {F}
POTA               .%                                      :  {F}
RHOB               .g/cc                                   :  {F}
RP                 .OHMM                                   :  {F}
RS                 .OHMM                                   :  {F}
THOR               .ppm                                    :  {F}
URAN               .ppm                                    :  {F}
~Ascii
# ...
1220.9276  8.5        9.8782     73.5645    136.6063   365.0107   95.5803    80.15004   0.504      0.4744675  2.9089     2.2024     0.8899     0.8641     9.3302     1.4104    
1221.08    8.5        9.9645     72.5137    136.4172   369.1216   95.9918    80.45914   0.4988     0.4668853  2.8405     2.2107     0.8905     0.8693     9.3004     1.5101    
1221.2324  8.5        9.9934     72.5257    136.1523   375.0994   95.7129    80.24964   0.4997     0.4681976  2.8377     2.211      0.8837     0.8657     9.3168     1.5111    
1221.3848  8.5        9.9557     73.1004    135.9491   373.0361   95.1359    79.81622   0.5031     0.4731551  2.8926     2.2029     0.8731     0.8533     9.2571     1.4824    
1221.5372  8.5        9.9187     74.2002    135.5628   367.3538   94.7083    79.49503   0.5029     0.4728635  2.9735     2.1957     0.8648     0.8409     9.2491     1.3997    
1221.6896  8.5        9.9501     75.5516    134.9277   366.1951   95.1773    79.84732   0.5031     0.4731551  3.0315     2.1967     0.8625     0.8355     9.406      1.2628    
1221.842   8.5        9.9953     76.1435    134.4382   368.6342   96.2783    80.67435   0.5079     0.480154   3.0498     2.2032     0.8649     0.8336     9.5153     1.177     
1221.9944  8.5        10.0233    75.6526    134.2352   371.7362   97.473     81.57175   0.5121     0.486278   3.0571     2.2071     0.868      0.8326     9.3417     1.1883    
1222.1468  8.5        10.0631    73.8458    134.086    372.8863   97.9057    81.89677   0.5094     0.4823412  3.0467     2.2055     0.8699     0.8315     8.8636     1.3104    
1222.2992  8.5        10.0441    71.2979    133.8994   371.5785   96.8493    81.10326   0.503      0.4730093  2.9738     2.2002     0.8711     0.8295     8.4179     1.4369    
1222.4516  8.5        9.9501     69.1168    133.8286   365.0615   95.7492    80.27691   0.5005     0.4693641  2.8499     2.1936     0.8721     0.8282     8.276      1.549     
1222.604   8.5        9.8519     68.1553    134.0391   359.8005   95.6595    80.20953   0.5011     0.470239   2.7594     2.1879     0.8741     0.8294     8.3807     1.6264    
1222.7564  8.5        9.7595     68.0681    134.3355   359.4672   96.9105    81.14922   0.4992     0.4674686  2.7102     2.1848     0.8784     0.834      8.5578     1.6697    
1222.9088  8.5        9.674      68.34      134.2943   356.1199   97.7483    81.77853   0.4947     0.4609071  2.6947     2.1842     0.8823     0.8398     8.6964     1.6804    
1223.0612  8.5        9.6024     69.0252    133.9166   355.5618   97.4131    81.52675   0.4924     0.4575535  2.7174     2.1845     0.8836     0.8421     8.8009     1.6386    
1223.2136  8.5        9.5378     69.8371    133.4919   358.0154   97.3936    81.5121    0.4961     0.4629485  2.758      2.1856     0.8855     0.8428     8.8724     1.5703    
1223.366   8.5        9.5046     69.6915    133.0409   362.1883   98.5424    82.37503   0.5031     0.4731551  2.7595     2.1887     0.8919     0.8488     8.8255     1.5977    
1223.5184  8.5        9.502      68.7661    132.6706   365.5226   100.2265   83.64005   0.5095     0.482487   2.7211     2.1924     0.9001     0.8587     8.7109     1.7216    
1223.6708  8.5        9.474      67.8932    132.7998   365.9012   101.0075   84.2267    0.5134     0.4881736  2.6904     2.1936     0.905      0.866      8.5828     1.8646    
1223.8232  8.5        9.4169     67.3961    133.4043   363.2311   100.821    84.08661   0.5138     0.4887568  2.6818     2.1919     0.9051     0.8669     8.4769     1.9986    
1223.9756  8.5        9.3842     66.8675    133.9129   359.3111   100.8992   84.14535   0.51       0.483216   2.6816     2.1894     0.9045     0.8639     8.3316     2.1317    
1224.128   8.5        9.3829     66.4054    134.0608   357.256    101.416    84.53355   0.5036     0.4738842  2.696      2.1878     0.9093     0.8662     8.1365     2.2374    
1224.2804  8.5        9.3956     66.7597    133.9402   358.934    102.0461   85.00684   0.5        0.4686351  2.7352     2.1862     0.92       0.877      8.0714     2.2429    
1224.4328  8.5        9.4336     68.7923    133.5048   363.156    102.4759   85.3297    0.4965     0.4635317  2.8126     2.1823     0.9317     0.8907     8.3383     2.0878    
1224.5852  8.5        9.4906     71.2135    132.7978   366.9665   103.0299   85.74583   0.4921     0.4571161  2.8941     2.1776     0.9424     0.9032     8.7234     1.9165    
1224.7376  8.5        9.5406     73.059     132.099    365.9463   104.7046   87.00378   0.4932     0.45872    2.9573     2.1761     0.955      0.9157     8.9987     1.8133    
1224.89    8.5        9.594      74.3575    131.6057   361.4383   106.9275   88.67352   0.497      0.4642608  2.9944     2.1795     0.9706     0.9331     9.2118     1.7467    
1225.0424  8.5        9.6535     75.1403    131.374    357.4704   109.6364   90.70833   0.4962     0.4630943  2.9979     2.185      0.9845     0.9503     9.4218     1.7175    
1225.1948  8.5        9.6759     75.5182    131.3318   351.1292   110.8699   91.63487   0.4908     0.4552205  2.9823     2.1911     0.9898     0.9574     9.5911     1.7337    
1225.3472  8.5        9.651      75.5812    131.2626   347.6903   110.1132   91.06647   0.4826     0.4432642  2.9548     2.1969     0.9838     0.9517     9.7165     1.7666    
1225.4996  8.5        9.6262     75.822     131.0871   348.2982   107.6875   89.2444    0.4763     0.4340781  2.9331     2.2002     0.9705     0.9376     9.8702     1.7448    
1225.652   8.5        9.6244     76.3552    131.066    352.2358   105.3622   87.49774   0.4769     0.434953   2.9297     2.1998     0.9566     0.9227     10.0367    1.6594    
1225.8044  8.5        9.6288     76.9815    131.4437   357.0873   104.6402   86.95541   0.4823     0.4428267  2.9365     2.1989     0.9476     0.9128     10.185     1.5619    
1225.9568  8.5        9.6273     77.9026    132.012    360.5229   105.5118   87.61012   0.4874     0.450263   2.9483     2.2021     0.9448     0.9111     10.3971    1.454     
1226.1092  8.5        9.6244     78.8657    132.3186   362.1329   106.4902   88.34505   0.4911     0.455658   2.9562     2.2092     0.9445     0.9127     10.6464    1.3651    
1226.2616  8.5        9.6056     79.2422    132.2337   362.653    107.081    88.78883   0.4947     0.4609071  2.9477     2.2138     0.9438     0.912      10.7939    1.341     
1226.414   8.5        9.5718     78.9293    132.0212   363.067    106.8289   88.59946   0.4944     0.4604697  2.9226     2.2106     0.9455     0.9122     10.8022    1.3815    
1226.5664  8.5        9.5408     78.2618    131.8847   363.8119   106.7579   88.54613   0.488      0.4511379  2.9096     2.2013     0.9528     0.9192     10.6632    1.4537    
1226.7188  8.5        9.5155     77.2379    131.7997   365.0117   107.4381   89.05707   0.4819     0.4422435  2.8926     2.193      0.9621     0.9304     10.434     1.5528    
1226.8712  8.5        9.4908     75.9311    131.7178   367.3508   109.189    90.37227   0.482      0.4423893  2.8469     2.1906     0.968      0.9389     10.2408    1.6763    
1227.0236  8.5        9.454      75.0356    131.5721   371.2618   111.1969   91.88049   0.4866     0.4490966  2.8202     2.1924     0.9691     0.941      10.0969    1.7726    
1227.176   8.5        9.4301     74.591     131.3844   375.024    112.5106   92.86729   0.492      0.4569703  2.8392     2.194      0.9672     0.9392     9.8993     1.8355    
1227.3284  8.5        9.4259     73.6612    131.3917   375.0295   112.1271   92.57922   0.4991     0.4673227  2.8633     2.1952     0.964      0.9374     9.5357     1.9226    
1227.4808  8.5        9.4314     71.9701    131.6414   373.2268   110.5058   91.36137   0.5048     0.4756339  2.8908     2.1972     0.9587     0.9329     8.9365     2.018     
1227.6332  8.5        9.4411     71.2452    131.8325   370.5972   108.1003   89.55448   0.5037     0.47403    2.9441     2.199      0.9494     0.9243     8.5172     1.9685    
1227.7856  8.5        9.4366     71.5852    131.7749   368.1027   106.0229   87.99403   0.4983     0.4661562  2.9731     2.1985     0.9388     0.9138     8.5037     1.8438    
