~Version
 VERS              .         3.0                           : CWLS LOG ASCII STANDARD - VERSION 3.0
 WRAP              .         NO                            : ONE LINE PER DEPTH STEP
 DLM               .         SPACE                         : DELIMITING CHARACTER(SPACE TAB OR COMMA)
~Well Information
#_______________________________________________________________________________
#
#PARAMETER_NAME    .UNIT     VALUE                         : DESCRIPTION
#_______________________________________________________________________________
STRT               .M        200                           : First reference value
STOP               .M        2131.9748                     : Last reference value
STEP               .M        0.1524                        : Step increment
NULL               .         -9999                         : Missing value
COMP               .         PEMEX                         : Company
WELL               .         YETIC-1                       : Well name
FLD                .         YETIC                         : Field
LOC                .         PLAT. PRIDE WISCONSIN         : Location
SRVC               .         TEMPLE                        : Service Company
CTRY               .         MX                            : Country
DATE               .         01-Julio-2005                 : Service Date
X                  .M        364558.478                    : X or East-West coordinate
Y                  .M        2032524.533                   : Y or North South coordinate
GDAT               .                                       : Geodetic Datum
HZCS               .                                       : Horizontal Co-ordinate System
ACTIVO             .         ACTIVO REGIONAL EXPLORACION MARINA: 
APD                .                                       : Above Perm Datum
API                .                                       : API Number
CLASS              .         01-01-01                      : 
CNTY               .         COATZACOALCOS                 : County
CRSTATUS           .         1                             : 
CURRENT_CL         .         1                             : 
COUNTRY            .         Mexico                        : Mexico
DEVIATION_         .                                       : 
DISTRICT           .         278                           : 
DMF                .                                       : Drill Measured From
EDF                .         30.000000                     : Elev-Drill Floor
EGL                .         -42.000000                    : Elev-Ground Level
EKB                .         30.300000                     : Elev-Kelly Bushing.
EPD                .                                       : Elevation
EREF               .         33                            : 
FIELD              .         90016                         : 
FORM_AT_TD         .         PLI                           : 
Fecha_de_Inicio    .         01/01/2001                    : 01/01/2008
GEOLOGICAL         .                                       : 
GEOLOGIC_P         .         CUENCA SALINA DEL ISTMO       : 
INSERTED_B         .                                       : 
LAST_UPDAT         .         05-07-10                      : 
LMF                .                                       : Log Measured From
LOC1               .                                       : Location 1
NODE_ID            .         2595768                       : 
OBJECTID           .         15377                         : 
OPERATOR           .         PEP                           : 
ORIGINALWELLNAME   .         Yetic-1                       : 
PDAT               .                                       : Perm Datum
PERIODO            .         TERCIARIO                     : 
PRIMARY_SO         .         PEP                           : 
PROY_INV           .         COATZACOALCOS                 : 
Provincia          .          SALINA DEL ISTMO             :  PILAR REFORMA-AKAL
Proyecto           .         UCHUKIL                       : CAMPECHE ORIENTE
RNGE               .                                       : Range
RT_ELEVATI         .         33                            : 
SECT               .                                       : Section
SHORT_NAME         .         Yetic-1                       : 
SITUACION          .         PRODUCTOR DE GAS Y CONDENSADO : 
SITUATION          .         TAP                           : 
STAT               .         VERACRUZ                      : State
WSTA               .         PRODUCTOR DE ACEITE Y GAS     : TAPONADO POR ACCIDENTE MECANICO DURANTE LA PERFORACION
TIPO_DE_HCS        .                                       :  
TOWN               .                                       : Township
TVD                .         2122                          : 
TD                 .M        0                             : 0
UPDATED_BY         .         LESPEJEL                      : 
UWI                .         3060000972                    : 0
WATER_REF          .         SL                            : 
WELL_NUMBE         .         1                             : 
WELL_TYPE          .         MARINO                        : 
Water_depth        .         42                            : 40
XCOORD             .         364558.3961                   : MapXCoordinate
YCOORD             .         2032524.8110                  : MapYCoordinate
group              .         02 Octli Cahua.Block 3 A      : 
~Parameter Information Block
#_______________________________________________________________________________
#
#PARAMETER_NAME    .UNIT     VALUE                         : DESCRIPTION
#_______________________________________________________________________________
SET                .         LQC                           : 
TLFamily_BS        .         Bit Size                      : 
TLFamily_CALI      .         Caliper                       : 
TLFamily_CGR       .         Gamma Ray Minus Uranium       : 
TLFamily_DT        .         Compressional Slowness        : 
TLFamily_DTS       .         Shear Slowness                : 
TLFamily_GR        .         Gamma Ray                     : 
TLFamily_GR_EDITED .         Gamma Ray                     : 
TLFamily_MD        .         Measured Depth                : 
TLFamily_NPHI      .         Neutron Porosity              : 
TLFamily_NPHI_EDITED .         Neutron Porosity              : 
TLFamily_POTA      .         Potassium Concentration       : 
TLFamily_RHOB      .         Bulk Density                  : 
TLFamily_RP        .         Resistivity - Deep            : 
TLFamily_RS        .         Resistivity - Shallow         : 
TLFamily_THOR      .         Thorium Concentration         : 
TLFamily_URAN      .         Uranium Concentration         : 
group              .         Registros Editados            : 
~Curve Information
#_______________________________________________________________________________
#
#LOGNAME           .UNIT     LOG_ID                        : DESCRIPTION
#_______________________________________________________________________________
DEPTH              .M                                      :  {F}
BS                 .in                                     :  {F}
CALI               .in                                     :  {F}
CGR                .gAPI                                   :  {F}
DT                 .us/ft                                  :  {F}
DTS                .us/ft                                  :  {F}
GR                 .gAPI                                   :  {F}
GR_EDITED          .gAPI                                   : Normalized by Techlog {F}
NPHI               .V/V                                    :  {F}
NPHI_EDITED        .m3/m3                                  : Normalized by Techlog {F}
POTA               .%                                      :  {F}
RHOB               .g/cc                                   :  {F}
RP                 .OHMM                                   :  {F}
RS                 .OHMM                                   :  {F}
THOR               .ppm                                    :  {F}
URAN               .ppm                                    :  {F}
~Ascii
# ...
1858.874   8.5        9.0199     49.1938    112.1619   259.3693   67.7027    59.20969   0.4184     0.3813431  2.3873     2.0921     0.445      0.4944     6.9779     0.2231    
1859.0264  8.5        8.4959     50.7227    113.7133   257.5735   69.3155    60.42114   0.3966     0.3632538  2.3404     2.1064     0.3976     0.4358     6.791      0.1685    
1859.1788  8.5        8.4288     53.3883    115.7006   254.0631   70.9423    61.64312   0.4109     0.3751197  2.3323     2.0689     0.3535     0.4173     6.6958     0.1439    
1859.3312  8.5        8.6091     56.9415    117.4885   249.9531   72.0842    62.50086   0.4578     0.4140365  2.387      2.0017     0.3136     0.4088     6.892      0.1411    
1859.4836  8.5        9.1103     56.6548    118.6787   246.0226   71.9502    62.40022   0.5095     0.4569363  2.4163     1.9487     0.2796     0.3754     7.2591     0.141     
1859.636   8.5        10.0448    56.2676    119.1003   242.5857   70.0799    60.99533   0.5383     0.480834   2.4238     1.946      0.2662     0.3329     7.7247     0.1439    
1859.7884  8.5        11.1953    57.7382    118.8383   239.4235   67.0046    58.68531   0.5419     0.4838212  2.4258     1.9929     0.2926     0.3177     8.2046     0.1506    
1859.9408  8.5        11.98      59.3989    118.0557   236.0878   63.7846    56.26659   0.5369     0.4796723  2.381      2.0632     0.3678     0.3479     8.4851     0.1753    
1860.0932  8.5        12.3402    62.8318    116.775    232.9649   61.7597    54.74558   0.5377     0.4803361  2.283      2.1273     0.4718     0.4214     8.245      0.2815    
1860.2456  8.5        12.5608    63.1362    114.9652   231.5117   61.4838    54.53834   0.5396     0.4819127  2.2187     2.1565     0.5679     0.5192     7.7106     0.3581    
1860.398   8.5        12.729     60.9541    112.8931   232.9027   62.9521    55.64126   0.5389     0.4813319  2.2588     2.145      0.633      0.621      7.5415     0.3051    
1860.5504  8.5        12.8593    58.2416    111.1854   237.699    64.8501    57.06694   0.5365     0.4793404  2.3189     2.1183     0.6654     0.7031     7.5807     0.2785    
1860.7028  8.5        12.9068    59.1513    110.225    245.2244   66.3358    58.18294   0.5304     0.4742787  2.3369     2.1044     0.6716     0.7534     7.5728     0.357     
1860.8552  8.5        12.5819    59.375     109.6649   254.0438   67.1364    58.78431   0.521      0.4664788  2.3207     2.1036     0.6607     0.749      7.5106     0.5323    
1861.0076  8.5        11.8925    58.9061    108.6619   262.1199   67.9271    59.37825   0.511      0.4581809  2.321      2.1053     0.6481     0.7094     7.3278     0.7498    
1861.16    8.5        11.1828    57.8436    106.6617   267.4362   70.0404    60.96566   0.4965     0.4461491  2.3546     2.1132     0.6491     0.6844     7.0456     0.9752    
1861.3124  8.5        10.543     58.9716    103.9309   269.1593   73.4189    63.50343   0.4756     0.4288066  2.4268     2.1399     0.6617     0.6825     7.0812     1.0902    
1861.4648  8.5        9.8731     61.0253    101.3122   267.7779   77.7642    66.76742   0.4534     0.4103855  2.5075     2.1835     0.6669     0.679      7.3686     1.0872    
1861.6172  8.5        9.3214     62.2678    99.4955    264.9511   81.6666    69.69872   0.4348     0.3949515  2.5617     2.2256     0.659      0.6558     7.5158     1.0602    
1861.7696  8.5        9.0875     60.9525    98.5119    262.2001   84.7826    72.03931   0.4222     0.3844962  2.5749     2.2465     0.6552     0.6347     7.2925     1.0987    
1861.922   8.5        9.0268     61.3578    98.2926    260.047    86.7141    73.49017   0.4168     0.3800154  2.5933     2.2445     0.665      0.6382     6.995      1.1689    
1862.0744  8.5        9.0026     61.8782    98.7983    257.8548   87.2211    73.871     0.4197     0.3824218  2.6387     2.23       0.677      0.6546     6.9329     1.1664    
1862.2268  8.5        9.0379     62.0135    99.5997    254.3287   86.4984    73.32814   0.4261     0.3877324  2.6791     2.2152     0.6812     0.6677     6.9233     1.1217    
1862.3792  8.5        9.1303     63.8294    100.1783   248.815    85.5774    72.63633   0.4258     0.3874835  2.7068     2.2083     0.6763     0.6727     6.8475     1.083     
1862.5316  8.5        9.1914     65.3274    100.1581   241.7778   85.2703    72.40565   0.4181     0.3810942  2.7454     2.2094     0.6612     0.6646     6.855      0.9788    
1862.684   8.5        9.1234     66.7226    99.3313    234.2712   85.3912    72.49646   0.4075     0.3722984  2.7961     2.2156     0.6386     0.6435     7.0103     0.8036    
1862.8364  8.5        9.01       67.561     97.9866    227.3758   85.1709    72.33098   0.3971     0.3636687  2.8449     2.2256     0.6173     0.6227     7.2423     0.6072    
1862.9888  8.5        8.9601     67.2368    96.8686    221.7805   84.7624    72.02414   0.3904     0.3581092  2.8771     2.2374     0.6018     0.6101     7.5126     0.4238    
1863.1412  8.5        8.9431     65.5268    96.7332    218.1935   84.6328    71.92679   0.3865     0.354873   2.8869     2.2473     0.588      0.6058     7.7242     0.2929    
1863.2936  8.5        8.8702     63.8669    98.023     217.0474   84.9951    72.19893   0.3831     0.3520518  2.884      2.2558     0.5708     0.6056     7.6427     0.2736    
1863.446   8.5        8.7112     63.4958    100.4323   218.625    85.3591    72.47235   0.3825     0.3515539  2.8745     2.2669     0.5499     0.6082     7.1912     0.4051    
1863.5984  8.5        8.5989     63.9636    102.9393   222.5244   85.423     72.52035   0.3847     0.3533794  2.8688     2.2808     0.5301     0.6152     6.7251     0.5576    
1863.7508  8.5        8.6691     63.8885    104.8561   227.9502   84.8494    72.08949   0.3855     0.3540432  2.8734     2.292      0.5159     0.6189     6.5869     0.6024    
1863.9032  8.5        8.8368     62.5797    106.2397   233.8717   84.0503    71.48924   0.383      0.3519688  2.8832     2.2914     0.5054     0.606      6.7028     0.5642    
1864.0556  8.5        8.9142     61.2445    107.3452   239.4331   83.287     70.91589   0.3802     0.3496454  2.8674     2.2703     0.4923     0.575      6.7624     0.5713    
1864.208   8.5        8.8009     61.0414    108.6346   244.3197   82.7441    70.50809   0.3827     0.3517198  2.8119     2.2288     0.4681     0.5338     6.5983     0.6975    
1864.3604  8.5        8.5588     61.9897    110.6061   247.9391   82.5597    70.36957   0.3942     0.3612624  2.7505     2.1824     0.4315     0.4873     6.4443     0.7788    
1864.5128  8.5        8.376      63.1639    113.1025   251.3194   83.3329    70.95036   0.4119     0.3759495  2.7242     2.1508     0.3909     0.4509     6.4947     0.7192    
1864.6652  8.5        8.3178     63.8195    115.6202   255.0049   84.4432    71.78437   0.4276     0.3889771  2.7318     2.1414     0.3554     0.4302     6.7413     0.5952    
1864.8176  8.5        8.3041     64.0145    118.0551   259.2453   85.3892    72.49496   0.4387     0.3981876  2.7455     2.147      0.3291     0.4148     7.028      0.4797    
1864.97    8.5        8.2983     64.0526    120.5277   264.0097   85.4495    72.54025   0.4476     0.4055727  2.7498     2.1566     0.3142     0.4032     7.1985     0.4098    
1865.1224  8.5        8.3023     64.0365    122.5418   268.655    85.3607    72.47356   0.4574     0.4137046  2.7438     2.1643     0.3138     0.4003     7.2745     0.3609    
1865.2748  8.5        8.3439     63.7003    122.9442   272.4707   85.2932    72.42285   0.4657     0.4205918  2.7249     2.1704     0.3281     0.4122     7.3688     0.3093    
1865.4272  8.5        8.4499     63.0339    121.3726   274.6654   85.4086    72.50953   0.4632     0.4185174  2.6987     2.1757     0.3498     0.4321     7.4427     0.2709    
1865.5796  8.5        8.5431     61.9876    119.0953   274.6397   85.8603    72.84883   0.4496     0.4072323  2.6734     2.1771     0.3646     0.4396     7.3823     0.2806    
1865.732   8.5        8.4767     60.2938    117.3946   271.7398   85.9173    72.89165   0.4309     0.3917153  2.6493     2.1708     0.3629     0.4235     7.2608     0.3185    
