~Version
 VERS              .         3.0                           : CWLS LOG ASCII STANDARD - VERSION 3.0
 WRAP              .         NO                            : ONE LINE PER DEPTH STEP
 DLM               .         SPACE                         : DELIMITING CHARACTER(SPACE TAB OR COMMA)
~Well Information
#_______________________________________________________________________________
#
#PARAMETER_NAME    .UNIT     VALUE                         : DESCRIPTION
#_______________________________________________________________________________
STRT               .M        200                           : First reference value
STOP               .M        2131.9748                     : Last reference value
STEP               .M        0.1524                        : Step increment
NULL               .         -9999                         : Missing value
COMP               .         PEMEX                         : Company
WELL               .         YETIC-1                       : Well name
FLD                .         YETIC                         : Field
LOC                .         PLAT. PRIDE WISCONSIN         : Location
SRVC               .         TEMPLE                        : Service Company
CTRY               .         MX                            : Country
DATE               .         01-Julio-2005                 : Service Date
X                  .M        364558.478                    : X or East-West coordinate
Y                  .M        2032524.533                   : Y or North South coordinate
GDAT               .                                       : Geodetic Datum
HZCS               .                                       : Horizontal Co-ordinate System
ACTIVO             .         ACTIVO REGIONAL EXPLORACION MARINA: 
APD                .                                       : Above Perm Datum
API                .                                       : API Number
CLASS              .         01-01-01                      : 
CNTY               .         COATZACOALCOS                 : County
CRSTATUS           .         1                             : 
CURRENT_CL         .         1                             : 
COUNTRY            .         Mexico                        : Mexico
DEVIATION_         .                                       : 
DISTRICT           .         278                           : 
DMF                .                                       : Drill Measured From
EDF                .         30.000000                     : Elev-Drill Floor
EGL                .         -42.000000                    : Elev-Ground Level
EKB                .         30.300000                     : Elev-Kelly Bushing.
EPD                .                                       : Elevation
EREF               .         33                            : 
FIELD              .         90016                         : 
FORM_AT_TD         .         PLI                           : 
Fecha_de_Inicio    .         01/01/2001                    : 01/01/2008
GEOLOGICAL         .                                       : 
GEOLOGIC_P         .         CUENCA SALINA DEL ISTMO       : 
INSERTED_B         .                                       : 
LAST_UPDAT         .         05-07-10                      : 
LMF                .                                       : Log Measured From
LOC1               .                                       : Location 1
NODE_ID            .         2595768                       : 
OBJECTID           .         15377                         : 
OPERATOR           .         PEP                           : 
ORIGINALWELLNAME   .         Yetic-1                       : 
PDAT               .                                       : Perm Datum
PERIODO            .         TERCIARIO                     : 
PRIMARY_SO         .         PEP                           : 
PROY_INV           .         COATZACOALCOS                 : 
Provincia          .          SALINA DEL ISTMO             :  PILAR REFORMA-AKAL
Proyecto           .         UCHUKIL                       : CAMPECHE ORIENTE
RNGE               .                                       : Range
RT_ELEVATI         .         33                            : 
SECT               .                                       : Section
SHORT_NAME         .         Yetic-1                       : 
SITUACION          .         PRODUCTOR DE GAS Y CONDENSADO : 
SITUATION          .         TAP                           : 
STAT               .         VERACRUZ                      : State
WSTA               .         PRODUCTOR DE ACEITE Y GAS     : TAPONADO POR ACCIDENTE MECANICO DURANTE LA PERFORACION
TIPO_DE_HCS        .                                       :  
TOWN               .                                       : Township
TVD                .         2122                          : 
TD                 .M        0                             : 0
UPDATED_BY         .         LESPEJEL                      : 
UWI                .         3060000972                    : 0
WATER_REF          .         SL                            : 
WELL_NUMBE         .         1                             : 
WELL_TYPE          .         MARINO                        : 
Water_depth        .         42                            : 40
XCOORD             .         364558.3961                   : MapXCoordinate
YCOORD             .         2032524.8110                  : MapYCoordinate
group              .         02 Octli Cahua.Block 3 A      : 
~Parameter Information Block
#_______________________________________________________________________________
#
#PARAMETER_NAME    .UNIT     VALUE                         : DESCRIPTION
#_______________________________________________________________________________
SET                .         LQC                           : 
TLFamily_BS        .         Bit Size                      : 
TLFamily_CALI      .         Caliper                       : 
TLFamily_CGR       .         Gamma Ray Minus Uranium       : 
TLFamily_DT        .         Compressional Slowness        : 
TLFamily_DTS       .         Shear Slowness                : 
TLFamily_GR        .         Gamma Ray                     : 
TLFamily_GR_EDITED .         Gamma Ray                     : 
TLFamily_MD        .         Measured Depth                : 
TLFamily_NPHI      .         Neutron Porosity              : 
TLFamily_NPHI_EDITED .         Neutron Porosity              : 
TLFamily_POTA      .         Potassium Concentration       : 
TLFamily_RHOB      .         Bulk Density                  : 
TLFamily_RP        .         Resistivity - Deep            : 
TLFamily_RS        .         Resistivity - Shallow         : 
TLFamily_THOR      .         Thorium Concentration         : 
TLFamily_URAN      .         Uranium Concentration         : 
group              .         Registros Editados            : 
~Curve Information
#_______________________________________________________________________________
#
#LOGNAME           .UNIT     LOG_ID                        : DESCRIPTION
#_______________________________________________________________________________
DEPTH              .M                                      :  {F}
BS                 .in                                     :  {F}
CALI               .in                                     :  {F}
CGR                .gAPI                                   :  {F}
DT                 .us/ft                                  :  {F}
DTS                .us/ft                                  :  {F}
GR                 .gAPI                                   :  {F}
GR_EDITED          .gAPI                                   : Normalized by Techlog {F}
NPHI               .V/V                                    :  {F}
NPHI_EDITED        .m3/m3                                  : Normalized by Techlog {F}
POTA               .%                                      :  {F}
RHOB               .g/cc                                   :  {F}
RP                 .OHMM                                   :  {F}
RS                 .OHMM                                   :  {F}
THOR               .ppm                                    :  {F}
URAN               .ppm                                    :  {F}
~Ascii
# ...
585.2672   12.25      12.8558    -9999      156.3902   503.8125   41.1571    39.26987   0.4747     -9999      -9999      1.9965     0.7192     0.7768     -9999      -9999     
585.4195999999999 12.25      12.8043    -9999      155.899    500.5944   41.5992    39.60196   0.4802     -9999      -9999      2.0047     0.7224     0.7785     -9999      -9999     
585.572    12.25      12.7329    -9999      155.9459   494.058    42.4781    40.26214   0.4792     -9999      -9999      2.013      0.721      0.7715     -9999      -9999     
585.7243999999999 12.25      12.6977    -9999      155.8032   489.0478   42.8778    40.56238   0.4689     -9999      -9999      2.0148     0.7129     0.7571     -9999      -9999     
585.8768   12.25      12.7357    -9999      154.7274   489.1815   42.1665    40.02808   0.4594     -9999      -9999      2.0082     0.6996     0.7379     -9999      -9999     
586.0291999999999 12.25      12.8329    -9999      153.3262   493.8605   40.7925    38.996     0.4542     -9999      -9999      1.9992     0.688      0.7223     -9999      -9999     
586.1816   12.25      12.9376    -9999      152.4827   498.9828   39.8717    38.30434   0.4526     -9999      -9999      1.9959     0.6851     0.7189     -9999      -9999     
586.3339999999999 12.25      12.9952    -9999      152.1947   501.3071   39.9269    38.3458    0.4529     -9999      -9999      2.0026     0.6944     0.7305     -9999      -9999     
586.4864   12.25      13.0102    -9999      152.0178   498.6625   40.6069    38.85659   0.4467     -9999      -9999      2.0169     0.7148     0.7525     -9999      -9999     
586.6387999999999 12.25      13.0017    -9999      151.3075   489.8842   41.6574    39.64567   0.433      -9999      -9999      2.0329     0.7375     0.776      -9999      -9999     
586.7912   12.25      12.9867    -9999      149.65     474.9211   43.2445    40.83783   0.4219     -9999      -9999      2.0461     0.7542     0.7922     -9999      -9999     
586.9435999999999 12.25      12.9762    -9999      147.9547   456.4652   45.262     42.35328   0.4183     -9999      -9999      2.0548     0.7672     0.8012     -9999      -9999     
587.096    12.25      12.9528    -9999      147.4473   440.4466   47.2009    43.80969   0.4208     -9999      -9999      2.0585     0.7827     0.8148     -9999      -9999     
587.2483999999999 12.25      12.9092    -9999      147.6947   431.5147   48.6905    44.92861   0.4254     -9999      -9999      2.057      0.7948     0.8322     -9999      -9999     
587.4008   12.25      12.8674    -9999      147.6769   431.3313   49.4858    45.526     0.4302     -9999      -9999      2.0515     0.7944     0.8379     -9999      -9999     
587.5531999999999 12.25      12.8239    -9999      147.5179   436.0324   49.2664    45.3612    0.4335     -9999      -9999      2.046      0.7851     0.8252     -9999      -9999     
587.7056   12.25      12.7736    -9999      147.7782   440.8023   48.0874    44.47559   0.4316     -9999      -9999      2.0422     0.7772     0.8082     -9999      -9999     
587.8579999999999 12.25      12.7295    -9999      148.5446   444.8178   46.409     43.21485   0.4274     -9999      -9999      2.0356     0.7759     0.7993     -9999      -9999     
588.0104   12.25      12.6984    -9999      149.7788   450.1089   44.4456    41.74004   0.4279     -9999      -9999      2.0212     0.7747     0.7944     -9999      -9999     
588.1627999999999 12.25      12.6728    -9999      151.3416   457.505    42.4662    40.25321   0.4349     -9999      -9999      2.0027     0.7626     0.782      -9999      -9999     
588.3152   12.25      12.6434    -9999      152.6477   465.2616   41.4436    39.48508   0.4479     -9999      -9999      1.9912     0.7397     0.7629     -9999      -9999     
588.4675999999999 12.25      12.6065    -9999      153.1323   470.8961   42.0703    39.95583   0.4616     -9999      -9999      1.9953     0.7187     0.748      -9999      -9999     
588.62     12.25      12.568     -9999      152.901    473.9171   43.7294    41.20206   0.4692     -9999      -9999      2.0131     0.7097     0.7422     -9999      -9999     
588.7723999999999 12.25      12.5352    -9999      152.42     476.0244   45.5258    42.55143   0.4719     -9999      -9999      2.0358     0.7157     0.7466     -9999      -9999     
588.9248   12.25      12.5145    -9999      151.8803   478.2322   47.2925    43.87849   0.4715     -9999      -9999      2.054      0.7364     0.7619     -9999      -9999     
589.0771999999999 12.25      12.517     -9999      151.1317   479.671    48.8279    45.03182   0.4648     -9999      -9999      2.0627     0.7636     0.7857     -9999      -9999     
589.2296   12.25      12.5501    -9999      150.1542   480.1464   49.3499    45.42392   0.4529     -9999      -9999      2.062      0.7817     0.8057     -9999      -9999     
589.3819999999999 12.25      12.591     -9999      149.5291   481.298    48.4265    44.7303    0.4429     -9999      -9999      2.0555     0.7833     0.8118     -9999      -9999     
589.5344   12.25      12.6127    -9999      149.8376   483.6358   46.7644    43.48181   0.4377     -9999      -9999      2.049      0.7745     0.8042     -9999      -9999     
589.6867999999999 12.25      12.6212    -9999      150.5764   485.521    45.607     42.61243   0.4373     -9999      -9999      2.0466     0.7634     0.7906     -9999      -9999     
589.8392   12.25      12.632     -9999      150.8766   486.2658   45.4871    42.52236   0.441      -9999      -9999      2.0456     0.7551     0.7787     -9999      -9999     
589.9915999999999 12.25      12.6461    -9999      151.1998   487.2164   45.8251    42.77625   0.4503     -9999      -9999      2.0381     0.7502     0.7714     -9999      -9999     
590.144    12.25      12.6571    -9999      152.3376   489.1366   45.8707    42.81051   0.4653     -9999      -9999      2.023      0.7446     0.7683     -9999      -9999     
590.2963999999999 12.25      12.6668    -9999      153.639    490.9982   45.6575    42.65036   0.4834     -9999      -9999      2.0114     0.7357     0.7652     -9999      -9999     
590.4488   12.25      12.6736    -9999      154.1948   491.9401   45.7078    42.68814   0.4975     -9999      -9999      2.0134     0.7296     0.7625     -9999      -9999     
590.6011999999999 12.25      12.6817    -9999      154.2627   492.4779   46.1076    42.98846   0.502      -9999      -9999      2.0265     0.734      0.766      -9999      -9999     
590.7536   12.25      12.6867    -9999      154.3238   493.4297   46.4582    43.25181   0.4997     -9999      -9999      2.0403     0.7465     0.7789     -9999      -9999     
590.9059999999999 12.25      12.671     -9999      154.2719   494.9091   46.5414    43.3143    0.4922     -9999      -9999      2.0473     0.7565     0.7919     -9999      -9999     
591.0584   12.25      12.6493    -9999      153.9274   496.5143   46.2473    43.09339   0.4818     -9999      -9999      2.0453     0.7572     0.7952     -9999      -9999     
591.2107999999999 12.25      12.642     -9999      153.3084   498.1705   45.42      42.47196   0.475      -9999      -9999      2.0365     0.7493     0.789      -9999      -9999     
591.3632   12.25      12.6741    -9999      152.7253   500.2611   44.5946    41.85196   0.4799     -9999      -9999      2.0256     0.7372     0.7751     -9999      -9999     
591.5155999999999 12.25      12.7661    -9999      152.7241   503.0699   44.8249    42.02495   0.5017     -9999      -9999      2.0167     0.7253     0.7586     -9999      -9999     
591.668    12.25      12.8888    -9999      153.4693   505.945    46.0714    42.96126   0.5234     -9999      -9999      2.0085     0.717      0.7464     -9999      -9999     
591.8203999999999 12.25      12.9798    -9999      154.5246   507.4984   46.9659    43.63317   0.5236     -9999      -9999      1.9976     0.712      0.7411     -9999      -9999     
591.9728   12.25      12.979     -9999      155.2679   507.0939   46.7096    43.44065   0.5132     -9999      -9999      1.9865     0.7057     0.7371     -9999      -9999     
