~Version
 VERS              .         3.0                           : CWLS LOG ASCII STANDARD - VERSION 3.0
 WRAP              .         NO                            : ONE LINE PER DEPTH STEP
 DLM               .         SPACE                         : DELIMITING CHARACTER(SPACE TAB OR COMMA)
~Well Information
#_______________________________________________________________________________
#
#PARAMETER_NAME    .UNIT     VALUE                         : DESCRIPTION
#_______________________________________________________________________________
STRT               .M        200                           : First reference value
STOP               .M        2131.9748                     : Last reference value
STEP               .M        0.1524                        : Step increment
NULL               .         -9999                         : Missing value
COMP               .         PEMEX                         : Company
WELL               .         YETIC-1                       : Well name
FLD                .         YETIC                         : Field
LOC                .         PLAT. PRIDE WISCONSIN         : Location
SRVC               .         TEMPLE                        : Service Company
CTRY               .         MX                            : Country
DATE               .         01-Julio-2005                 : Service Date
X                  .M        364558.478                    : X or East-West coordinate
Y                  .M        2032524.533                   : Y or North South coordinate
GDAT               .                                       : Geodetic Datum
HZCS               .                                       : Horizontal Co-ordinate System
ACTIVO             .         ACTIVO REGIONAL EXPLORACION MARINA: 
APD                .                                       : Above Perm Datum
API                .                                       : API Number
CLASS              .         01-01-01                      : 
CNTY               .         COATZACOALCOS                 : County
CRSTATUS           .         1                             : 
CURRENT_CL         .         1                             : 
COUNTRY            .         Mexico                        : Mexico
DEVIATION_         .                                       : 
DISTRICT           .         278                           : 
DMF                .                                       : Drill Measured From
EDF                .         30.000000                     : Elev-Drill Floor
EGL                .         -42.000000                    : Elev-Ground Level
EKB                .         30.300000                     : Elev-Kelly Bushing.
EPD                .                                       : Elevation
EREF               .         33                            : 
FIELD              .         90016                         : 
FORM_AT_TD         .         PLI                           : 
Fecha_de_Inicio    .         01/01/2001                    : 01/01/2008
GEOLOGICAL         .                                       : 
GEOLOGIC_P         .         CUENCA SALINA DEL ISTMO       : 
INSERTED_B         .                                       : 
LAST_UPDAT         .         05-07-10                      : 
LMF                .                                       : Log Measured From
LOC1               .                                       : Location 1
NODE_ID            .         2595768                       : 
OBJECTID           .         15377                         : 
OPERATOR           .         PEP                           : 
ORIGINALWELLNAME   .         Yetic-1                       : 
PDAT               .                                       : Perm Datum
PERIODO            .         TERCIARIO                     : 
PRIMARY_SO         .         PEP                           : 
PROY_INV           .         COATZACOALCOS                 : 
Provincia          .          SALINA DEL ISTMO             :  PILAR REFORMA-AKAL
Proyecto           .         UCHUKIL                       : CAMPECHE ORIENTE
RNGE               .                                       : Range
RT_ELEVATI         .         33                            : 
SECT               .                                       : Section
SHORT_NAME         .         Yetic-1                       : 
SITUACION          .         PRODUCTOR DE GAS Y CONDENSADO : 
SITUATION          .         TAP                           : 
STAT               .         VERACRUZ                      : State
WSTA               .         PRODUCTOR DE ACEITE Y GAS     : TAPONADO POR ACCIDENTE MECANICO DURANTE LA PERFORACION
TIPO_DE_HCS        .                                       :  
TOWN               .                                       : Township
TVD                .         2122                          : 
TD                 .M        0                             : 0
UPDATED_BY         .         LESPEJEL                      : 
UWI                .         3060000972                    : 0
WATER_REF          .         SL                            : 
WELL_NUMBE         .         1                             : 
WELL_TYPE          .         MARINO                        : 
Water_depth        .         42                            : 40
XCOORD             .         364558.3961                   : MapXCoordinate
YCOORD             .         2032524.8110                  : MapYCoordinate
group              .         02 Octli Cahua.Block 3 A      : 
~Parameter Information Block
#_______________________________________________________________________________
#
#PARAMETER_NAME    .UNIT     VALUE                         : DESCRIPTION
#_______________________________________________________________________________
SET                .         LQC                           : 
TLFamily_BS        .         Bit Size                      : 
TLFamily_CALI      .         Caliper                       : 
TLFamily_CGR       .         Gamma Ray Minus Uranium       : 
TLFamily_DT        .         Compressional Slowness        : 
TLFamily_DTS       .         Shear Slowness                : 
TLFamily_GR        .         Gamma Ray                     : 
TLFamily_GR_EDITED .         Gamma Ray                     : 
TLFamily_MD        .         Measured Depth                : 
TLFamily_NPHI      .         Neutron Porosity              : 
TLFamily_NPHI_EDITED .         Neutron Porosity              : 
TLFamily_POTA      .         Potassium Concentration       : 
TLFamily_RHOB      .         Bulk Density                  : 
TLFamily_RP        .         Resistivity - Deep            : 
TLFamily_RS        .         Resistivity - Shallow         : 
TLFamily_THOR      .         Thorium Concentration         : 
TLFamily_URAN      .         Uranium Concentration         : 
group              .         Registros Editados            : 
~Curve Information
#_______________________________________________________________________________
#
#LOGNAME           .UNIT     LOG_ID                        : DESCRIPTION
#_______________________________________________________________________________
DEPTH              .M                                      :  {F}
BS                 .in                                     :  {F}
CALI               .in                                     :  {F}
CGR                .gAPI                                   :  {F}
DT                 .us/ft                                  :  {F}
DTS                .us/ft                                  :  {F}
GR                 .gAPI                                   :  {F}
GR_EDITED          .gAPI                                   : Normalized by Techlog {F}
NPHI               .V/V                                    :  {F}
NPHI_EDITED        .m3/m3                                  : Normalized by Techlog {F}
POTA               .%                                      :  {F}
RHOB               .g/cc                                   :  {F}
RP                 .OHMM                                   :  {F}
RS                 .OHMM                                   :  {F}
THOR               .ppm                                    :  {F}
URAN               .ppm                                    :  {F}
~Ascii
# ...
1599.4892  8.5        9.0093     65.9291    118.4944   282.8603   82.6047    70.40337   0.4721     0.4279541  2.8068     2.1403     0.7058     0.73       7.3947     1.0873    
1599.6416  8.5        9.2863     66.2046    117.3295   285.7597   84.6914    71.9708    0.4793     0.4384524  2.749      2.1326     0.6958     0.7518     7.5628     1.0456    
1599.794   8.5        9.3809     66.627     116.3161   284.8831   86.5566    73.37186   0.4795     0.438744   2.6862     2.1392     0.6676     0.7288     7.7504     1.0741    
1599.9464  8.5        9.3183     66.608     115.8682   280.8212   87.1364    73.80737   0.4739     0.4305787  2.6359     2.1575     0.6277     0.6659     7.8609     1.1578    
1600.0988  8.5        9.2832     66.1882    115.4824   274.7286   87.0545    73.74585   0.4613     0.4122066  2.6016     2.1774     0.5948     0.6045     7.9059     1.257     
1600.2512  8.5        9.3566     65.6903    114.6257   267.9897   87.0383    73.73369   0.4491     0.3944179  2.6073     2.1926     0.5837     0.5809     8.0129     1.3214    
1600.4036  8.5        9.5072     65.4463    113.1293   262.5382   87.1503    73.81781   0.4408     0.3823157  2.6231     2.2024     0.5903     0.5933     8.2135     1.2834    
1600.556   8.5        9.6166     65.3386    111.4412   260.9085   87.1219    73.79649   0.4331     0.3710883  2.6517     2.2094     0.6028     0.6183     8.4607     1.1411    
1600.7084  8.5        9.5385     65.1166    110.8311   264.4885   86.8379    73.58315   0.4284     0.3642353  2.6843     2.2159     0.617      0.6403     8.5639     1.0165    
1600.8608  8.5        9.1367     64.8863    112.2459   273.6135   85.9733    72.93371   0.4301     0.366714   2.72       2.2207     0.6275     0.6522     8.4735     0.9498    
1601.0132  8.5        8.797      64.5622    115.4365   284.7509   85.0538    72.24303   0.4382     0.3785246  2.7515     2.2207     0.6183     0.6419     8.3041     0.9371    
1601.1656  8.5        8.6998     64.2623    119.4773   297.3044   84.5462    71.86174   0.4469     0.3912101  2.7603     2.2138     0.5859     0.6027     8.1402     1.009     
1601.318   8.5        8.6907     64.5037    123.3865   310.583    84.6491    71.93903   0.4523     0.3990838  2.7127     2.2018     0.5527     0.5661     8.0186     1.1115    
1601.4704  8.5        8.7311     65.1987    126.2058   320.4372   84.8338    72.07777   0.4581     0.4075407  2.6432     2.1901     0.5376     0.5697     7.9559     1.165     
1601.6228  8.5        8.8119     66.268     127.276    330.3677   85.084     72.26571   0.4654     0.4181849  2.5403     2.1809     0.5355     0.5957     7.7639     1.1444    
1601.7752  8.5        8.9012     67.292     127.1393   341.9581   85.4767    72.56068   0.4712     0.4266418  2.4544     2.172      0.5372     0.6065     7.5784     1.1083    
1601.9276  8.5        8.9621     67.7955    126.5914   355.1087   85.7421    72.76004   0.4773     0.4355362  2.4027     2.163      0.5438     0.609      7.2424     1.2019    
1602.08    8.5        8.9847     67.8906    125.0779   365.2447   85.4778    72.56151   0.4888     0.4523043  2.402      2.1556     0.5534     0.6164     6.7748     1.3346    
1602.2324  8.5        8.9998     67.7588    122.5191   370.7297   85.302     72.42946   0.5011     0.470239   2.4599     2.1512     0.5555     0.6098     6.435      1.364     
1602.3848  8.5        9.0269     67.3139    120.5579   368.9974   86.8636    73.60246   0.5058     0.477092   2.5507     2.1486     0.5485     0.5835     6.3567     1.2455    
1602.5372  8.5        9.058      66.2129    120.0587   358.1844   88.9138    75.14248   0.5038     0.4741758  2.6241     2.145      0.5421     0.5615     6.4626     1.0745    
1602.6896  8.5        9.0686     62.8555    120.3088   344.2051   90.2802    76.16885   0.4992     0.4674686  2.6462     2.1405     0.5415     0.5561     6.5627     0.9623    
1602.842   8.5        9.0159     61.0245    120.3944   330.9878   88.835     75.08328   0.4939     0.4597406  2.6398     2.1409     0.5448     0.5606     6.6745     0.8679    
1602.9944  8.5        8.9456     59.1059    119.832    317.8368   86.1945    73.09987   0.4912     0.4558038  2.6242     2.1507     0.5522     0.5725     6.7456     0.8185    
1603.1468  8.5        8.9098     57.5014    118.6798   306.2422   83.0277    70.72112   0.4903     0.4544915  2.5906     2.166      0.5629     0.5916     6.7535     0.8373    
1603.2992  8.5        8.8897     57.1137    117.4328   296.4343   80.952     69.16194   0.4872     0.4499714  2.5656     2.1783     0.5672     0.6041     6.7389     0.8642    
1603.4516  8.5        8.8831     58.1063    116.7709   288.4887   80.3697    68.72455   0.4819     0.4422435  2.5773     2.1834     0.5604     0.5949     6.7579     0.8325    
1603.604   8.5        8.8813     59.5194    116.9295   283.3256   81.2931    69.41816   0.475      0.4321826  2.5932     2.1833     0.5523     0.5768     6.8278     0.7822    
1603.7564  8.5        8.8633     60.1565    117.4242   281.7843   82.5163    70.33697   0.4669     0.420372   2.5567     2.1829     0.5483     0.5658     6.9658     0.7702    
1603.9088  8.5        8.8405     60.4575    118.0125   284.7542   83.0101    70.70789   0.4603     0.4107486  2.4658     2.1839     0.546      0.5577     7.0811     0.8274    
1604.0612  8.5        8.8597     60.4787    118.8914   291.8124   82.5979    70.39827   0.4585     0.408124   2.3853     2.1823     0.5452     0.5511     6.9924     0.9422    
1604.2136  8.5        8.9282     60.0368    119.9561   301.0537   81.9377    69.90235   0.459      0.408853   2.3658     2.1763     0.5444     0.5491     6.7998     0.9973    
1604.366   8.5        8.9956     59.6454    120.8098   309.3604   81.6308    69.67182   0.4571     0.4060827  2.3763     2.1718     0.5422     0.55       6.7331     0.9495    
1604.5184  8.5        9.0396     59.8899    121.1344   313.2272   81.7836    69.78661   0.4554     0.4036039  2.3845     2.1741     0.5465     0.5596     6.8509     0.8477    
1604.6708  8.5        9.0675     60.3519    120.975    314.8024   81.6886    69.71524   0.4597     0.4098737  2.3629     2.18       0.5559     0.5858     7.0131     0.7997    
1604.8232  8.5        9.1079     60.3157    120.7073   312.519    80.9239    69.14083   0.4664     0.419643   2.3127     2.1814     0.5528     0.599      7.2142     0.7958    
1604.9756  8.5        9.1611     59.4259    120.4398   308.8005   79.9588    68.4159    0.4666     0.4199346  2.2568     2.1747     0.5363     0.5755     7.4296     0.7926    
1605.128   8.5        9.1848     57.9799    119.9376   305.5001   79.6721    68.20054   0.459      0.408853   2.2177     2.1659     0.5252     0.5548     7.5156     0.799     
1605.2804  8.5        9.1459     57.0758    119.2679   302.3365   80.6075    68.90317   0.4525     0.3993754  2.1944     2.1639     0.5251     0.562      7.4839     0.818     
1605.4328  8.5        9.0535     57.0186    118.8921   298.516    81.7587    69.7679    0.4502     0.3960218  2.1871     2.1684     0.5249     0.5764     7.4068     0.8294    
1605.5852  8.5        8.9818     57.5291    119.1838   294.9432   82.5644    70.3731    0.4489     0.3941263  2.1832     2.1695     0.5156     0.5764     7.2904     0.8607    
1605.7376  8.5        8.9555     57.7814    120.3296   293.7171   82.2031    70.10172   0.4468     0.3910643  2.1702     2.1638     0.4994     0.5588     7.0726     0.9511    
1605.89    8.5        8.9053     57.742     122.333    297.178    80.3744    68.72807   0.4429     0.3853777  2.1487     2.1572     0.4847     0.5395     6.7367     1.1038    
1606.0424  8.5        8.8245     57.4834    124.5001   304.5217   78.4238    67.26288   0.4405     0.3818782  2.1439     2.1543     0.4783     0.5331     6.4625     1.2022    
1606.1948  8.5        8.7545     57.0706    125.6723   313.7779   77.2044    66.34692   0.4416     0.3834821  2.1663     2.1523     0.4761     0.5371     6.4539     1.167     
1606.3472  8.5        8.7293     56.6936    125.4826   321.0608   77.275     66.39996   0.4435     0.3862526  2.2127     2.1501     0.4684     0.5357     6.6527     1.0185    
