~Version
 VERS              .         3.0                           : CWLS LOG ASCII STANDARD - VERSION 3.0
 WRAP              .         NO                            : ONE LINE PER DEPTH STEP
 DLM               .         SPACE                         : DELIMITING CHARACTER(SPACE TAB OR COMMA)
~Well Information
#_______________________________________________________________________________
#
#PARAMETER_NAME    .UNIT     VALUE                         : DESCRIPTION
#_______________________________________________________________________________
STRT               .M        200                           : First reference value
STOP               .M        2131.9748                     : Last reference value
STEP               .M        0.1524                        : Step increment
NULL               .         -9999                         : Missing value
COMP               .         PEMEX                         : Company
WELL               .         YETIC-1                       : Well name
FLD                .         YETIC                         : Field
LOC                .         PLAT. PRIDE WISCONSIN         : Location
SRVC               .         TEMPLE                        : Service Company
CTRY               .         MX                            : Country
DATE               .         01-Julio-2005                 : Service Date
X                  .M        364558.478                    : X or East-West coordinate
Y                  .M        2032524.533                   : Y or North South coordinate
GDAT               .                                       : Geodetic Datum
HZCS               .                                       : Horizontal Co-ordinate System
ACTIVO             .         ACTIVO REGIONAL EXPLORACION MARINA: 
APD                .                                       : Above Perm Datum
API                .                                       : API Number
CLASS              .         01-01-01                      : 
CNTY               .         COATZACOALCOS                 : County
CRSTATUS           .         1                             : 
CURRENT_CL         .         1                             : 
COUNTRY            .         Mexico                        : Mexico
DEVIATION_         .                                       : 
DISTRICT           .         278                           : 
DMF                .                                       : Drill Measured From
EDF                .         30.000000                     : Elev-Drill Floor
EGL                .         -42.000000                    : Elev-Ground Level
EKB                .         30.300000                     : Elev-Kelly Bushing.
EPD                .                                       : Elevation
EREF               .         33                            : 
FIELD              .         90016                         : 
FORM_AT_TD         .         PLI                           : 
Fecha_de_Inicio    .         01/01/2001                    : 01/01/2008
GEOLOGICAL         .                                       : 
GEOLOGIC_P         .         CUENCA SALINA DEL ISTMO       : 
INSERTED_B         .                                       : 
LAST_UPDAT         .         05-07-10                      : 
LMF                .                                       : Log Measured From
LOC1               .                                       : Location 1
NODE_ID            .         2595768                       : 
OBJECTID           .         15377                         : 
OPERATOR           .         PEP                           : 
ORIGINALWELLNAME   .         Yetic-1                       : 
PDAT               .                                       : Perm Datum
PERIODO            .         TERCIARIO                     : 
PRIMARY_SO         .         PEP                           : 
PROY_INV           .         COATZACOALCOS                 : 
Provincia          .          SALINA DEL ISTMO             :  PILAR REFORMA-AKAL
Proyecto           .         UCHUKIL                       : CAMPECHE ORIENTE
RNGE               .                                       : Range
RT_ELEVATI         .         33                            : 
SECT               .                                       : Section
SHORT_NAME         .         Yetic-1                       : 
SITUACION          .         PRODUCTOR DE GAS Y CONDENSADO : 
SITUATION          .         TAP                           : 
STAT               .         VERACRUZ                      : State
WSTA               .         PRODUCTOR DE ACEITE Y GAS     : TAPONADO POR ACCIDENTE MECANICO DURANTE LA PERFORACION
TIPO_DE_HCS        .                                       :  
TOWN               .                                       : Township
TVD                .         2122                          : 
TD                 .M        0                             : 0
UPDATED_BY         .         LESPEJEL                      : 
UWI                .         3060000972                    : 0
WATER_REF          .         SL                            : 
WELL_NUMBE         .         1                             : 
WELL_TYPE          .         MARINO                        : 
Water_depth        .         42                            : 40
XCOORD             .         364558.3961                   : MapXCoordinate
YCOORD             .         2032524.8110                  : MapYCoordinate
group              .         02 Octli Cahua.Block 3 A      : 
~Parameter Information Block
#_______________________________________________________________________________
#
#PARAMETER_NAME    .UNIT     VALUE                         : DESCRIPTION
#_______________________________________________________________________________
SET                .         LQC                           : 
TLFamily_BS        .         Bit Size                      : 
TLFamily_CALI      .         Caliper                       : 
TLFamily_CGR       .         Gamma Ray Minus Uranium       : 
TLFamily_DT        .         Compressional Slowness        : 
TLFamily_DTS       .         Shear Slowness                : 
TLFamily_GR        .         Gamma Ray                     : 
TLFamily_GR_EDITED .         Gamma Ray                     : 
TLFamily_MD        .         Measured Depth                : 
TLFamily_NPHI      .         Neutron Porosity              : 
TLFamily_NPHI_EDITED .         Neutron Porosity              : 
TLFamily_POTA      .         Potassium Concentration       : 
TLFamily_RHOB      .         Bulk Density                  : 
TLFamily_RP        .         Resistivity - Deep            : 
TLFamily_RS        .         Resistivity - Shallow         : 
TLFamily_THOR      .         Thorium Concentration         : 
TLFamily_URAN      .         Uranium Concentration         : 
group              .         Registros Editados            : 
~Curve Information
#_______________________________________________________________________________
#
#LOGNAME           .UNIT     LOG_ID                        : DESCRIPTION
#_______________________________________________________________________________
DEPTH              .M                                      :  {F}
BS                 .in                                     :  {F}
CALI               .in                                     :  {F}
CGR                .gAPI                                   :  {F}
DT                 .us/ft                                  :  {F}
DTS                .us/ft                                  :  {F}
GR                 .gAPI                                   :  {F}
GR_EDITED          .gAPI                                   : Normalized by Techlog {F}
NPHI               .V/V                                    :  {F}
NPHI_EDITED        .m3/m3                                  : Normalized by Techlog {F}
POTA               .%                                      :  {F}
RHOB               .g/cc                                   :  {F}
RP                 .OHMM                                   :  {F}
RS                 .OHMM                                   :  {F}
THOR               .ppm                                    :  {F}
URAN               .ppm                                    :  {F}
~Ascii
# ...
1094.7404  8.5        8.8606     63.8356    130.3499   366.3356   87.5665    74.13045   0.4883     0.4515753  2.4857     2.1365     1.1586     1.1233     8.6766     1.3604    
1094.8928  8.5        8.8811     63.599     130.6788   368.043    87.4562    74.04759   0.488      0.4511379  2.5359     2.1331     1.1544     1.1183     8.7156     1.2744    
1095.0452  8.5        8.9092     64.1592    131.0957   365.8765   87.9023    74.38268   0.4872     0.4499714  2.5514     2.1285     1.1472     1.1102     8.6613     1.3005    
1095.1976  8.5        8.9228     65.431     131.4389   364.5512   89.676     75.71501   0.4867     0.4492424  2.5532     2.1237     1.1368     1.0994     8.5291     1.3884    
1095.35    8.5        8.9539     66.5656    131.7021   365.0398   92.1901    77.60349   0.4841     0.4454513  2.5376     2.1204     1.1233     1.087      8.3638     1.5127    
1095.5024  8.5        8.9592     66.5404    131.7575   367.3814   94.119     79.05238   0.4798     0.4391814  2.5089     2.121      1.1101     1.0732     8.2352     1.6287    
1095.6548  8.5        8.9232     65.534     131.371    369.8372   94.2793    79.17279   0.474      0.4307245  2.486      2.1273     1.1079     1.0676     8.1531     1.701     
1095.8072  8.5        8.9009     64.6281    130.5466   370.5053   93.0844    78.27523   0.4693     0.4238715  2.4861     2.1368     1.125      1.0811     8.1852     1.6944    
1095.9596  8.5        8.8959     64.3372    129.7631   369.3097   91.5901    77.15279   0.4695     0.4241631  2.5036     2.1441     1.1508     1.1086     8.4001     1.5913    
1096.112   8.5        8.8827     65.0351    129.522    367.7823   90.4848    76.32254   0.4745     0.4314536  2.5362     2.145      1.1673     1.1291     8.72       1.4418    
1096.2644  8.5        8.8673     66.5516    129.6689   368.0564   89.9023    75.88499   0.4786     0.4374318  2.5425     2.1405     1.1722     1.1335     8.9153     1.3813    
1096.4168  8.5        8.8656     67.9098    129.79     370.937    89.9589    75.92751   0.4782     0.4368485  2.4918     2.1343     1.1709     1.1323     8.8859     1.4712    
1096.5692  8.5        8.8774     68.242     130.0419   372.7001   90.3498    76.22113   0.4782     0.4368485  2.42       2.1299     1.1608     1.1239     8.8125     1.5866    
1096.7216  8.5        8.8919     68.0234    130.6904   371.6504   90.8983    76.63314   0.4829     0.4437016  2.3878     2.1294     1.143      1.1063     8.7743     1.6295    
1096.874   8.5        8.8899     68.0679    131.3638   370.4658   91.2763    76.91708   0.4866     0.4490966  2.4252     2.1314     1.1275     1.0909     8.8244     1.5406    
1097.0264  8.5        8.8786     68.4479    131.6491   371.1351   91.5213    77.1011    0.4825     0.4431183  2.5037     2.1323     1.1195     1.0827     8.9471     1.3725    
1097.1788  8.5        8.878      68.6051    131.6676   373.9815   91.6262    77.1799    0.4778     0.4362653  2.5596     2.1311     1.1166     1.0795     9.116      1.2182    
1097.3312  8.5        8.8703     67.9923    131.6041   379.0946   91.5108    77.09322   0.48       0.4394731  2.5834     2.1284     1.1148     1.0777     9.1166     1.1589    
1097.4836  8.5        8.8229     65.8964    131.4829   384.2989   91.0722    76.76376   0.4847     0.4463261  2.602      2.123      1.1088     1.0725     8.9675     1.1639    
1097.636   8.5        8.7396     63.2549    131.4558   384.956    90.9514    76.67303   0.4888     0.4523043  2.6236     2.1157     1.0941     1.06       8.8935     1.1566    
1097.7884  8.5        8.6721     62.0752    131.6218   381.7068   91.1593    76.82919   0.4907     0.4550748  2.6488     2.1129     1.0781     1.0427     8.9087     1.1165    
1097.9408  8.5        8.6691     62.7913    131.7883   377.6588   91.3265    76.95479   0.4879     0.450992   2.6653     2.1199     1.0755     1.0366     8.893      1.0916    
1098.0932  8.5        8.717      64.7302    131.7745   373.861    90.256     76.15067   0.4805     0.4402021  2.6464     2.1317     1.0851     1.0484     8.7922     1.1549    
1098.2456  8.5        8.7818     66.5513    131.5402   371.1932   88.1381    74.5598    0.4723     0.4282457  2.5643     2.1376     1.0924     1.059      8.5287     1.3853    
1098.398   8.5        8.863      67.8977    131.1515   369.8891   86.1967    73.10152   0.4704     0.4254754  2.4794     2.133      1.0915     1.0561     8.1042     1.6648    
1098.5504  8.5        8.9249     68.9506    130.9119   369.3089   85.7345    72.75433   0.474      0.4307245  2.4611     2.1232     1.0881     1.0495     7.8173     1.7847    
1098.7028  8.5        8.9187     69.3117    130.9975   368.8492   86.3842    73.24236   0.4764     0.4342239  2.4968     2.1161     1.0866     1.0487     7.8956     1.7088    
1098.8552  8.5        8.8706     68.983     131.1296   368.5434   87.2426    73.88715   0.4739     0.4305787  2.5671     2.1159     1.0865     1.0507     8.1747     1.497     
1099.0076  8.5        8.8343     68.2041    131.0787   368.6967   87.8564    74.34821   0.4706     0.425767   2.6277     2.1227     1.0892     1.0535     8.4533     1.2966    
1099.16    8.5        8.8147     67.4412    131.0268   368.9856   89.2737    75.41281   0.4729     0.4291206  2.6498     2.1347     1.0959     1.0599     8.7448     1.15      
1099.3124  8.5        8.7846     67.0224    131.1919   369.0052   90.9334    76.65951   0.4784     0.4371401  2.646      2.1478     1.1017     1.0659     9.0649     1.0246    
1099.4648  8.5        8.744      66.9153    131.372    369.1626   91.9093    77.39256   0.4785     0.437286   2.6239     2.1567     1.1037     1.0661     9.2659     0.9531    
1099.6172  8.5        8.718      66.832     131.2244   369.0481   91.1174    76.79771   0.4721     0.4279541  2.5779     2.1597     1.1053     1.0653     9.2561     0.9832    
1099.7696  8.5        8.7124     66.6292    130.9066   369.5165   89.725     75.75182   0.4667     0.4200804  2.5316     2.1601     1.1082     1.0685     9.1768     1.0464    
1099.922   8.5        8.7406     66.4967    130.7635   371.5161   89.206     75.36196   0.4625     0.4139564  2.5117     2.1599     1.1122     1.0748     9.0781     1.0972    
1100.0744  8.5        8.8305     66.5708    130.6781   372.7097   90.1262    76.05318   0.4573     0.4063743  2.5132     2.1582     1.12       1.0845     9.0104     1.1129    
1100.2268  8.5        8.9138     66.8846    130.4821   371.5803   91.2785    76.91873   0.4607     0.4113318  2.5359     2.1549     1.1262     1.0945     8.922      1.0999    
1100.3792  8.5        8.9197     67.3727    130.3331   367.8518   91.5116    77.09382   0.4702     0.4251837  2.5892     2.153      1.1247     1.0972     8.6642     1.0953    
1100.5316  8.5        8.9107     67.6299    130.2461   364.0199   90.6202    76.42424   0.4712     0.4266418  2.6575     2.1545     1.1228     1.0934     8.3223     1.1118    
1100.684   8.5        8.9405     67.3489    130.0821   362.0896   89.4799    75.5677    0.4628     0.4143938  2.7296     2.1579     1.1247     1.0907     8.0252     1.1172    
1100.8364  8.5        8.9802     66.6461    130.077    362.2211   88.2454    74.6404    0.4557     0.4040413  2.7835     2.1608     1.1254     1.0938     7.8571     1.1009    
1100.9888  8.5        9.0247     65.7503    130.5619   362.7748   87.4058    74.00974   0.4555     0.4037497  2.7959     2.1631     1.1219     1.0946     7.9379     1.0515    
1101.1412  8.5        9.0919     64.833     131.1892   361.6158   86.9514    73.66841   0.4582     0.4076866  2.7708     2.1654     1.1114     1.084      8.1894     0.9991    
1101.2936  8.5        9.1574     64.0019    131.3047   357.5744   87.5292    74.10242   0.4613     0.4122066  2.7417     2.1657     1.0924     1.0627     8.3092     1.0129    
1101.446   8.5        9.1826     63.3874    130.8593   351.8899   89.0216    75.22345   0.4676     0.4213927  2.7016     2.1598     1.0683     1.0362     8.3079     1.0915    
1101.5984  8.5        9.2068     63.1578    130.2254   346.7174   90.7565    76.52663   0.4731     0.4294122  2.6347     2.1494     1.0565     1.0209     8.3297     1.2096    
